[
    {
        "address": "서울특별시 서초구 48 반포대로30길 서초동 지하1층",
        "amenity": "restaurant",
        "name": "나래바 플러스",
        "coordinates": [
            127.0113082,
            37.4921736
        ]
    },
    {
        "address": "서울특별시 서초구 307 효령로 서초동",
        "amenity": "bar",
        "name": "동호숯불바베큐",
        "coordinates": [
            127.0178447,
            37.4856399
        ]
    },
    {
        "name": "LG서초에클라트",
        "coordinates": [
            127.014502,
            37.486841
        ]
    },
    {
        "address": "서울특별시 서초구 176 신반포로",
        "amenity": "restaurant",
        "name": "Flavors(플레이버즈)",
        "coordinates": [
            127.0047802,
            37.5039047
        ]
    },
    {
        "address": "서울특별시 서초구 398 서초대로 지하1층 7호 (서초동, 플래티넘타워)",
        "amenity": "restaurant",
        "name": "청화당 빌앤쿡 강남역점",
        "coordinates": [
            127.0251587,
            37.4966528
        ]
    },
    {
        "address": "서울특별시 강남구 498 강남대로 논현동 지하1층",
        "amenity": "restaurant",
        "name": "비비드(VIVID)",
        "coordinates": [
            127.0239287,
            37.5067102
        ]
    },
    {
        "address": "서울특별시 서초구 222 반포대로 가톨릭대학교옴니버스파크 지하3층 L009호 (반포동)",
        "amenity": "restaurant",
        "name": "플렌티",
        "coordinates": [
            127.0052764,
            37.500086
        ]
    },
    {
        "address": "서울특별시 서초구 18 강남대로79길 반포동",
        "amenity": "restaurant",
        "name": "여수해변",
        "coordinates": [
            127.0229193,
            37.5050821
        ]
    },
    {
        "address": "서울특별시 강남구 10 강남대로114길 2층 201호 (논현동)",
        "amenity": "restaurant",
        "name": "난장캠프",
        "coordinates": [
            127.0252369,
            37.505751
        ]
    },
    {
        "address": "서울특별시 서초구 1 효령로52길 (서초동,(1층))",
        "amenity": "restaurant",
        "name": "카츠공방 서초본점",
        "coordinates": [
            127.0128627,
            37.4841287
        ]
    },
    {
        "address": "서울특별시 서초구 19 방배로13길 방배동",
        "amenity": "restaurant",
        "name": "소문난순대.순대국밥",
        "coordinates": [
            126.9954333,
            37.4827106
        ]
    },
    {
        "address": "서울특별시 서초구 52 효령로31길 방배동 1층",
        "amenity": "restaurant",
        "name": "돈선생 방배점",
        "coordinates": [
            126.9956604,
            37.4834811
        ]
    },
    {
        "address": "서울특별시 서초구 345 효령로 서초동 1층",
        "amenity": "restaurant",
        "name": "샐러링 서초점",
        "coordinates": [
            127.0216974,
            37.4869765
        ]
    },
    {
        "address": "서울특별시 서초구 349 사평대로",
        "amenity": "restaurant",
        "name": "스파게티스토리",
        "coordinates": [
            127.0212228,
            37.503807
        ]
    },
    {
        "address": "서울특별시 서초구 138 서운로 1층 114-1,114-2호 (서초동, 서초동아타워)",
        "amenity": "restaurant",
        "name": "찜샤브 서초점",
        "coordinates": [
            127.0253063,
            37.4960238
        ]
    },
    {
        "address": "서울특별시 서초구 9-3 사평대로26길 2층 (반포동, 윌러스빌딩)",
        "amenity": "restaurant",
        "name": "YOON(윤)",
        "coordinates": [
            126.9990185,
            37.4997598
        ]
    },
    {
        "address": "서울특별시 서초구 42 반포대로28길",
        "amenity": "restaurant",
        "name": "스모크벙커",
        "coordinates": [
            127.010836,
            37.490983
        ]
    },
    {
        "name": "에코마트",
        "coordinates": [
            126.9981337,
            37.4965268
        ]
    },
    {
        "name": "교보타워앞",
        "coordinates": [
            127.02379,
            37.50438
        ]
    },
    {
        "address": "서울특별시 서초구 35 서초대로77길 1층 104호 (서초동)",
        "amenity": "cafe",
        "name": "SLOW",
        "coordinates": [
            127.0252965,
            37.5008324
        ]
    },
    {
        "address": "서울특별시 서초구 4 서초대로49길 서초동 지하1층",
        "amenity": "restaurant",
        "name": "젠",
        "coordinates": [
            127.0124106,
            37.4938036
        ]
    },
    {
        "address": "서울특별시 강남구 15 강남대로118길 논현동 1층",
        "amenity": "restaurant",
        "name": "일월육일(강남신논현점)",
        "coordinates": [
            127.0247352,
            37.5068039
        ]
    },
    {
        "address": "서울특별시 서초구 22 반포대로 서초동",
        "amenity": "restaurant",
        "name": "주식회사 엠에프지코리아 매드포갈릭 예술의전당점",
        "coordinates": [
            127.012747,
            37.4828834
        ]
    },
    {
        "amenity": "dentist",
        "name": "인치과의원",
        "coordinates": [
            126.9984857,
            37.497644
        ]
    },
    {
        "amenity": "bank",
        "name": "KB국민은행",
        "coordinates": [
            127.0199358,
            37.4862226
        ]
    },
    {
        "address": "서울특별시 서초구 28 효령로55길 207호 (서초동, 브이-샤르망)",
        "amenity": "restaurant",
        "name": "야생맥주",
        "coordinates": [
            127.0145439,
            37.4861288
        ]
    },
    {
        "name": "서래안경",
        "coordinates": [
            126.9981813,
            37.4974019
        ]
    },
    {
        "address": "서울특별시 서초구 258 효령로 서초동 101호",
        "amenity": "restaurant",
        "name": "크리스피 파이",
        "coordinates": [
            127.012476,
            37.484037
        ]
    },
    {
        "address": "서울특별시 서초구 6 서래로5길 반포동 1층",
        "amenity": "restaurant",
        "name": "서래쭈꾸미",
        "coordinates": [
            126.9979487,
            37.4979736
        ]
    },
    {
        "address": "서울특별시 서초구 12 서초대로38길 지하1층 B101호 (서초동, 마제스타시티, 힐스테이트 서리풀)",
        "amenity": "restaurant",
        "name": "콩마켓",
        "coordinates": [
            127.0057936,
            37.4903279
        ]
    },
    {
        "address": "서울특별시 서초구 194 신반포로 강남고속버스터미널 경부선 1층 11번 101호 (반포동)",
        "amenity": "restaurant",
        "name": "이선생국밥",
        "coordinates": [
            127.0070921,
            37.505525
        ]
    },
    {
        "address": "서울특별시 서초구 18 방배로13길 1층 126호 (방배동, 방배아크로타워)",
        "amenity": "restaurant",
        "name": "귄식당",
        "coordinates": [
            126.9953126,
            37.483155
        ]
    },
    {
        "address": "서울특별시 서초구 220 서운로 1층 5호,6호 (서초동, 대지프라자)",
        "amenity": "restaurant",
        "name": "서울집",
        "coordinates": [
            127.0218152,
            37.5027417
        ]
    },
    {
        "address": "서울특별시 서초구 2",
        "name": "doughroom",
        "coordinates": [
            126.9935164,
            37.4938019
        ]
    },
    {
        "amenity": "cafe",
        "name": "Maillet",
        "coordinates": [
            126.9976227,
            37.4989006
        ]
    },
    {
        "address": "서울특별시 서초구 94 효령로31길",
        "amenity": "restaurant",
        "name": "홍미단",
        "coordinates": [
            126.994544,
            37.485094
        ]
    },
    {
        "name": "남부터미널.기쁨병원",
        "coordinates": [
            127.0178114,
            37.481837
        ]
    },
    {
        "address": "서울특별시 서초구 31 강남대로79길 1층",
        "amenity": "cafe",
        "name": "셀렉토커피 신논현점",
        "coordinates": [
            127.0224752,
            37.5044439
        ]
    },
    {
        "name": "세븐일레븐",
        "coordinates": [
            127.0254338,
            37.500085
        ]
    },
    {
        "address": "서울특별시 서초구 360 서초대로",
        "amenity": "restaurant",
        "name": "깐부치킨 서초점",
        "coordinates": [
            127.02069,
            37.495461
        ]
    },
    {
        "address": "서울특별시 서초구 27 반포대로21길 1층 103호 (서초동, 화원그랑빌아파트 상가 )",
        "amenity": "restaurant",
        "name": "고기반장",
        "coordinates": [
            127.0085152,
            37.4873753
        ]
    },
    {
        "address": "서울특별시 서초구 10 강남대로69길 서초동 1층",
        "amenity": "restaurant",
        "name": "곱창이야기 강남점",
        "coordinates": [
            127.0242872,
            37.5017535
        ]
    },
    {
        "address": "서울특별시 서초구 57 반포대로30길 서초동 1층",
        "amenity": "restaurant",
        "name": "강남면사무소",
        "coordinates": [
            127.0117488,
            37.4925454
        ]
    },
    {
        "address": "서울특별시 서초구 14 효령로31길 방배동 1층",
        "amenity": "restaurant",
        "name": "보배반점 방배점",
        "coordinates": [
            126.9967465,
            37.481952
        ]
    },
    {
        "address": "서울특별시 서초구 26 법원로3길 한림빌딩 1층 (서초동)",
        "amenity": "restaurant",
        "name": "101커피컨테이너",
        "coordinates": [
            127.0077559,
            37.4930685
        ]
    },
    {
        "amenity": "restaurant",
        "name": "흑돈가",
        "coordinates": [
            127.0246595,
            37.4953426
        ]
    },
    {
        "address": "서울특별시 서초구 214 효령로 서초동",
        "amenity": "restaurant",
        "name": "산동",
        "coordinates": [
            127.0077423,
            37.4831311
        ]
    },
    {
        "address": "서울특별시 서초구 16 효령로31길 방배동 1층",
        "amenity": "restaurant",
        "name": "라멘토카이",
        "coordinates": [
            126.9965729,
            37.4819855
        ]
    },
    {
        "address": "서울특별시 서초구 18 사평대로55길 반포동 지하1층",
        "amenity": "restaurant",
        "name": "백가 구내식당 반포점",
        "coordinates": [
            127.0227311,
            37.5048541
        ]
    },
    {
        "address": "서울특별시 서초구 205 사평대로 CENTRALCITY반포천 복개주차장",
        "amenity": "restaurant",
        "name": "모던눌랑(Modern Nülang)",
        "coordinates": [
            127.0066618,
            37.5040133
        ]
    },
    {
        "address": "서울특별시 서초구 33 강남대로83길 102호",
        "amenity": "restaurant",
        "name": "언구비육회",
        "coordinates": [
            127.0218545,
            37.5055984
        ]
    },
    {
        "address": "서울특별시 서초구 194 신반포로 강남고속터미널 본관1층 104호 (반포동)",
        "amenity": "restaurant",
        "name": "제레미20 강남고속터미널점",
        "coordinates": [
            127.0070921,
            37.505525
        ]
    },
    {
        "address": "서울특별시 서초구 24 서초대로73길 서초동",
        "amenity": "restaurant",
        "name": "강남역 파스타",
        "coordinates": [
            127.0251713,
            37.499542
        ]
    },
    {
        "address": "서울특별시 서초구 138 서운로 지하1층 주방19호 (서초동, 서초동아타워)",
        "amenity": "restaurant",
        "name": "잭잭",
        "coordinates": [
            127.0253063,
            37.4960238
        ]
    },
    {
        "address": "서울특별시 서초구 261 서초대로 서초동 1층",
        "amenity": "cafe",
        "name": "Cafe Urbanite",
        "coordinates": [
            127.0103581,
            37.4929569
        ]
    },
    {
        "address": "서울특별시 강남구 446 강남대로 역삼동",
        "amenity": "restaurant",
        "name": "등나무집",
        "coordinates": [
            127.0261051,
            37.5023677
        ]
    },
    {
        "address": "서울특별시 서초구 42 사평대로22길 101호 (반포동)",
        "amenity": "restaurant",
        "name": "미카사",
        "coordinates": [
            126.9975545,
            37.497767
        ]
    },
    {
        "name": "GS25",
        "coordinates": [
            127.0221246,
            37.4843031
        ]
    },
    {
        "name": "서초고후문",
        "coordinates": [
            127.004662,
            37.4889221
        ]
    },
    {
        "address": "서울특별시 서초구 47 효령로55길 (서초동,2층일부,3층일부)",
        "amenity": "restaurant",
        "name": "홍천한우",
        "coordinates": [
            127.0140638,
            37.486958
        ]
    },
    {
        "address": "서울특별시 서초구 17 남부순환로325길 신빌딩 1층 101호 (서초동)",
        "amenity": "restaurant",
        "name": "주식회사 러키아이티(동보성)",
        "coordinates": [
            127.0146255,
            37.4820246
        ]
    },
    {
        "address": "서울특별시 서초구 14 효령로53길 서초동 지하1층",
        "amenity": "restaurant",
        "name": "시로",
        "coordinates": [
            127.013922,
            37.4852816
        ]
    },
    {
        "amenity": "bicycle_rental",
        "name": "교보타워 버스정류장(신논현역 3번출구 후면)",
        "coordinates": [
            127.0242767,
            37.5055809
        ]
    },
    {
        "address": "서울특별시 서초구 18 방배로13길 122호 (방배동, 방배아크로타워)",
        "amenity": "restaurant",
        "name": "오봉도시락",
        "coordinates": [
            126.9953126,
            37.483155
        ]
    },
    {
        "address": "서울특별시 서초구 455 강남대로",
        "amenity": "restaurant",
        "name": "겐조라멘 강남점",
        "coordinates": [
            127.0242983,
            37.5026973
        ]
    },
    {
        "address": "서울특별시 서초구 24 사평대로26길",
        "amenity": "bar",
        "name": "프로젝트 베이스(PROJECT BASE)",
        "coordinates": [
            126.998982,
            37.499083
        ]
    },
    {
        "address": "서울특별시 서초구 126 방배로 방배동 101호",
        "amenity": "restaurant",
        "name": "비엔나커피하우스 방배점",
        "coordinates": [
            126.9955446,
            37.4853711
        ]
    },
    {
        "amenity": "bank",
        "name": "우리은행",
        "coordinates": [
            127.018584,
            37.4944801
        ]
    },
    {
        "address": "서울특별시 서초구 17 서초중앙로22길 1층 (서초동, A구역)",
        "amenity": "restaurant",
        "name": "청년순대국",
        "coordinates": [
            127.0146704,
            37.4933254
        ]
    },
    {
        "amenity": "bicycle_rental",
        "name": "KT 서초지사 앞",
        "coordinates": [
            127.0027008,
            37.4821587
        ]
    },
    {
        "address": "서울특별시 서초구 17 서초중앙로20길 서초동 1층",
        "amenity": "restaurant",
        "name": "포케올데이 교대점",
        "coordinates": [
            127.0150923,
            37.4923995
        ]
    },
    {
        "address": "서울특별시 서초구 176 신반포로 지하1중층 (반포동, 센트럴시티)",
        "amenity": "restaurant",
        "name": "메가박스중앙(주)센트럴시티지점",
        "coordinates": [
            127.0036505,
            37.5043705
        ]
    },
    {
        "name": "Nail Eclat",
        "coordinates": [
            126.9981829,
            37.4975413
        ]
    },
    {
        "name": "내방역 1번출구",
        "coordinates": [
            126.9942283,
            37.4877283
        ]
    },
    {
        "name": "반포래미안아이파크아파트",
        "coordinates": [
            127.0120274,
            37.5003518
        ]
    },
    {
        "address": "서울특별시 서초구 25 서초대로53길 서초동 1층",
        "amenity": "restaurant",
        "name": "목연",
        "coordinates": [
            127.0142239,
            37.4963479
        ]
    },
    {
        "address": "서울특별시 서초구 29 반포대로26길 원빌딩 1층 (서초동)",
        "amenity": "restaurant",
        "name": "주식회사 무온",
        "coordinates": [
            127.0107763,
            37.490697
        ]
    },
    {
        "amenity": "restaurant",
        "name": "Table Bann",
        "coordinates": [
            126.9993219,
            37.49766
        ]
    },
    {
        "address": "서울특별시 동대문구 15 휘경로",
        "name": "하늘창커튼",
        "coordinates": [
            127.0628394,
            37.5949511
        ]
    },
    {
        "address": "서울특별시 서초구 76-5 반포대로28길 서초동 지하1층",
        "amenity": "restaurant",
        "name": "비손",
        "coordinates": [
            127.0127438,
            37.4916761
        ]
    },
    {
        "name": "서초경찰서",
        "coordinates": [
            127.005994,
            37.4956827
        ]
    },
    {
        "address": "서울특별시 서초구 40 사평대로26길 3층 (반포동, 리윤빌딩)",
        "amenity": "restaurant",
        "name": "르지우 컴퍼니",
        "coordinates": [
            126.9989387,
            37.4983349
        ]
    },
    {
        "address": "서울특별시 서초구 20 반포대로28길 서초동 지하1층",
        "amenity": "restaurant",
        "name": "브이아이피(VIP)",
        "coordinates": [
            127.0098142,
            37.4905052
        ]
    },
    {
        "address": "서울특별시 서초구 70 반포대로28길 서초동 2층",
        "amenity": "restaurant",
        "name": "고메램 교대점",
        "coordinates": [
            127.0122589,
            37.4916106
        ]
    },
    {
        "address": "서울특별시 서초구 45 서초대로77길 3층 304호,305호 (서초동)",
        "amenity": "restaurant",
        "name": "마장동연가 강남점",
        "coordinates": [
            127.024836,
            37.5015879
        ]
    },
    {
        "name": "신논현역 8번출구",
        "coordinates": [
            127.0244486,
            37.5040442
        ]
    },
    {
        "address": "서울특별시 서초구 4 서초대로49길 1층,2층,3층 (서초동)",
        "amenity": "restaurant",
        "name": "이남장(서초점)",
        "coordinates": [
            127.0124106,
            37.4938036
        ]
    },
    {
        "address": "서울특별시 서초구 33 사임당로 서초동",
        "amenity": "restaurant",
        "name": "진미정",
        "coordinates": [
            127.0136757,
            37.4884096
        ]
    },
    {
        "amenity": "bar",
        "name": "Patio 949",
        "coordinates": [
            126.9980431,
            37.4988176
        ]
    },
    {
        "address": "서울특별시 서초구 7 서초대로73길 서초동 2층",
        "amenity": "restaurant",
        "name": "낙원타코 강남역점",
        "coordinates": [
            127.0253411,
            37.498148
        ]
    },
    {
        "address": "서울특별시 서초구 49 서초대로40길 서초동 1층",
        "amenity": "restaurant",
        "name": "뜸들이다 서초점",
        "coordinates": [
            127.0082294,
            37.4894705
        ]
    },
    {
        "address": "서울특별시 강남구 20 강남대로114길 지하1층 2호 (논현동)",
        "amenity": "restaurant",
        "name": "팔공키친",
        "coordinates": [
            127.0259032,
            37.5059522
        ]
    },
    {
        "name": "내방",
        "coordinates": [
            126.9921169,
            37.4872377
        ]
    },
    {
        "address": "서울특별시 강남구 16 봉은사로2길 역삼동 102호",
        "amenity": "restaurant",
        "name": "퓨전술집U",
        "coordinates": [
            127.0256724,
            37.5036329
        ]
    },
    {
        "name": "서초역 2번출구",
        "coordinates": [
            127.0080965,
            37.4915647
        ]
    },
    {
        "name": "영동선 승차장",
        "coordinates": [
            127.0072654,
            37.5059997
        ]
    },
    {
        "address": "서울특별시 서초구 75 반포대로26길 서초동 지하1층",
        "amenity": "restaurant",
        "name": "브롱스 교대점",
        "coordinates": [
            127.0131114,
            37.4916931
        ]
    },
    {
        "address": "서울특별시 서초구 11 서초중앙로24길 서초동",
        "amenity": "restaurant",
        "name": "삼풍치킨",
        "coordinates": [
            127.0149441,
            37.4949638
        ]
    },
    {
        "address": "서울특별시 서초구 176 신반포로 신세계백화점 강남점 지하1층 (반포동)",
        "amenity": "restaurant",
        "name": "미뉴트빠삐용 강남 신세계",
        "coordinates": [
            127.0036505,
            37.5043705
        ]
    },
    {
        "address": "서울특별시 서초구 39 반포대로28길 1층 일부호 (서초동)",
        "amenity": "restaurant",
        "name": "동경규동",
        "coordinates": [
            127.0105204,
            37.4912087
        ]
    },
    {
        "address": "서울특별시 서초구 6 사평대로58길 현대썬앤빌 강남 더 인피닛 지하1층 B102호 (서초동)",
        "amenity": "restaurant",
        "name": "만뽀스키야끼 강남더인피닛스퀘어점",
        "coordinates": [
            127.0235774,
            37.5035985
        ]
    },
    {
        "amenity": "pub",
        "name": "생활맥주",
        "coordinates": [
            126.9985544,
            37.4993895
        ]
    },
    {
        "address": "서울특별시 서초구 19 서초대로26길",
        "amenity": "restaurant",
        "name": "고향맛집",
        "coordinates": [
            126.995127,
            37.486804
        ]
    },
    {
        "address": "서울특별시 서초구 238 서초중앙로 삼호가든쇼핑센타 지하중층 (반포동)",
        "amenity": "restaurant",
        "name": "원할머니 보쌈 족발 박가 부대찌개 반포점",
        "coordinates": [
            127.0120932,
            37.5029597
        ]
    },
    {
        "address": "서울특별시 서초구 79 서초중앙로 서초동 1층",
        "amenity": "restaurant",
        "name": "교대곱창2",
        "coordinates": [
            127.0142945,
            37.488861
        ]
    },
    {
        "address": "서울특별시 서초구 21 사임당로 1층 104호 (서초동)",
        "amenity": "restaurant",
        "name": "Coffeebay 서초사임당점",
        "coordinates": [
            127.012558,
            37.4879742
        ]
    },
    {
        "address": "서울특별시 서초구 23 서초대로25길 방배동 101호",
        "amenity": "restaurant",
        "name": "아비꼬 내방역점",
        "coordinates": [
            126.9937136,
            37.4888999
        ]
    },
    {
        "address": "서울특별시 서초구 79 서초대로50길 지하 1층 (서초동)",
        "amenity": "bar",
        "name": "코코(COCO)",
        "coordinates": [
            127.0138939,
            37.4897581
        ]
    },
    {
        "address": "서울특별시 강남구 19 강남대로114길 논현동 101호",
        "amenity": "bar",
        "name": "금주",
        "coordinates": [
            127.0258689,
            37.5062025
        ]
    },
    {
        "name": "서래마을",
        "coordinates": [
            126.9978778,
            37.4965895
        ]
    },
    {
        "address": "서울특별시 서초구 5 사평대로18길",
        "amenity": "restaurant",
        "name": "주미요",
        "coordinates": [
            126.995836,
            37.498639
        ]
    },
    {
        "name": "효성빌라",
        "coordinates": [
            126.9982381,
            37.4962251
        ]
    },
    {
        "amenity": "bank",
        "name": "IBK기업은행",
        "coordinates": [
            127.0116961,
            37.4935948
        ]
    },
    {
        "address": "서울특별시 서초구 39 사임당로 202호 (서초동, 한성빌딩)",
        "amenity": "restaurant",
        "name": "604 BAR",
        "coordinates": [
            127.0141172,
            37.4884593
        ]
    },
    {
        "amenity": "bank",
        "name": "농협",
        "coordinates": [
            127.009207,
            37.4921306
        ]
    },
    {
        "name": "두레스경영연구소",
        "coordinates": [
            127.014132,
            37.48919
        ]
    },
    {
        "name": "서울교대사거리",
        "coordinates": [
            127.012974,
            37.4877389
        ]
    },
    {
        "address": "서울특별시 서초구 1",
        "amenity": "cafe",
        "name": "빽다방",
        "coordinates": [
            127.0082348,
            37.4914063
        ]
    },
    {
        "address": "서울특별시 강남구 16 봉은사로2길 역삼동",
        "amenity": "restaurant",
        "name": "목구멍 신논현점",
        "coordinates": [
            127.0256724,
            37.5036329
        ]
    },
    {
        "address": "서울특별시 서초구 16 서래로7길 302호 (반포동)",
        "amenity": "restaurant",
        "name": "민트로(Mintro)",
        "coordinates": [
            126.9975019,
            37.4988669
        ]
    },
    {
        "name": "세븐일레븐",
        "coordinates": [
            126.9983704,
            37.4993607
        ]
    },
    {
        "name": "3층28호중고폰매장",
        "coordinates": [
            127.0176711,
            37.4846234
        ]
    },
    {
        "name": "방일초등학교",
        "coordinates": [
            126.9949808,
            37.4853737
        ]
    },
    {
        "amenity": "cafe",
        "name": "스타벅스",
        "coordinates": [
            127.0255351,
            37.5032213
        ]
    },
    {
        "address": "서울특별시 서초구 16 서래로7길 2층 201호 (반포동, 반포동 민트)",
        "amenity": "restaurant",
        "name": "37.5 서래마을점",
        "coordinates": [
            126.9975019,
            37.4988669
        ]
    },
    {
        "name": "서초동삼성아파트",
        "coordinates": [
            127.0089653,
            37.4885115
        ]
    },
    {
        "address": "서울특별시 서초구 105 사임당로 112호 (서초동)",
        "amenity": "restaurant",
        "name": "코로돈(Korodon)",
        "coordinates": [
            127.0213412,
            37.4905732
        ]
    },
    {
        "address": "서울특별시 서초구 25 서초대로24길 방배동",
        "amenity": "bar",
        "name": "러브체인",
        "coordinates": [
            126.9937984,
            37.4863133
        ]
    },
    {
        "address": "서울특별시 서초구 51 서초중앙로 서초신성미소시티 1층 102호,103호 (서초동)",
        "amenity": "restaurant",
        "name": "보승회관 남부터미널역",
        "coordinates": [
            127.0151277,
            37.4863582
        ]
    },
    {
        "address": "서울특별시 강남구 15 봉은사로2길 역삼동 1층",
        "amenity": "restaurant",
        "name": "팔백집 강남점",
        "coordinates": [
            127.0259725,
            37.5036354
        ]
    },
    {
        "address": "서울특별시 서초구 220 서운로 1층 2,3호 (서초동)",
        "amenity": "restaurant",
        "name": "도미노피자 동서초점",
        "coordinates": [
            127.0218152,
            37.5027417
        ]
    },
    {
        "address": "서울특별시 서초구 37 서초대로27길",
        "amenity": "cafe",
        "name": "delight(딜라이트)",
        "coordinates": [
            126.993976,
            37.489616
        ]
    },
    {
        "address": "서울특별시 서초구 7 서초중앙로6길 서초동 1층",
        "amenity": "restaurant",
        "name": "퇴근길 회 포차",
        "coordinates": [
            127.0161503,
            37.4862334
        ]
    },
    {
        "address": "서울특별시 서초구 30 반포대로16길 106호 (서초동)",
        "amenity": "restaurant",
        "name": "특별난구역 서초1구역(짓다프로젝트)",
        "coordinates": [
            127.0125392,
            37.4862187
        ]
    },
    {
        "address": "서울특별시 서초구 349 사평대로 서초빌딩 109,110호 (반포동)",
        "amenity": "restaurant",
        "name": "켈리포니아",
        "coordinates": [
            127.0212296,
            37.5038053
        ]
    },
    {
        "address": "서울특별시 서초구 3 서래로8길 반포동 2층",
        "amenity": "bar",
        "name": "골든슬럼버",
        "coordinates": [
            126.9987887,
            37.4987579
        ]
    },
    {
        "address": "서울특별시 서초구 349 사평대로",
        "amenity": "bar",
        "name": "어반 위스키",
        "coordinates": [
            127.021196,
            37.5037947
        ]
    },
    {
        "amenity": "bank",
        "name": "하나은행",
        "coordinates": [
            127.0139062,
            37.4953143
        ]
    },
    {
        "address": "서울특별시 서초구 1 법원로1길 서호빌딩 1층 103호 (서초동)",
        "amenity": "restaurant",
        "name": "네모오징어 서초법원점",
        "coordinates": [
            127.0104938,
            37.4932474
        ]
    },
    {
        "address": "서울특별시 서초구 176 신반포로 신세계센트럴시티 1층중층 M10호 (반포동)",
        "amenity": "restaurant",
        "name": "중화가정 신세계센트럴시티점",
        "coordinates": [
            127.0036505,
            37.5043705
        ]
    },
    {
        "address": "서울특별시 강남구 6 봉은사로1길 지상2층 201호 (논현동)",
        "amenity": "restaurant",
        "name": "투뿔냉삼",
        "coordinates": [
            127.0252727,
            37.5052699
        ]
    },
    {
        "address": "서울특별시 서초구 9 강남대로65길 3층 (서초동)",
        "amenity": "restaurant",
        "name": "수다Ⅱ",
        "coordinates": [
            127.0251155,
            37.5002544
        ]
    },
    {
        "address": "서울특별시 서초구 25 서초중앙로22길",
        "amenity": "restaurant",
        "name": "아비꼬 교대역점",
        "coordinates": [
            127.0153262,
            37.4933567
        ]
    },
    {
        "amenity": "prep_school",
        "name": "리얼수학",
        "coordinates": [
            127.0112666,
            37.5010269
        ]
    },
    {
        "amenity": "bank",
        "name": "신한은행",
        "coordinates": [
            127.0048296,
            37.4936799
        ]
    },
    {
        "address": "서울특별시 서초구 338 서초대로 102호 (서초동)",
        "amenity": "restaurant",
        "name": "서초바다 청조",
        "coordinates": [
            127.0186584,
            37.4948221
        ]
    },
    {
        "address": "서울특별시 서초구 80 반포대로28길",
        "amenity": "restaurant",
        "name": "씨에프바베큐치킨",
        "coordinates": [
            127.0125997,
            37.491812
        ]
    },
    {
        "address": "서울특별시 서초구 27 서초중앙로24길 지하1층 108호,111호 (서초동)",
        "amenity": "restaurant",
        "name": "샘밭막국수",
        "coordinates": [
            127.0164951,
            37.4954123
        ]
    },
    {
        "address": "서울특별시 서초구 59 강남대로79길 새로나 빌딩 1층 102호 (반포동)",
        "amenity": "restaurant",
        "name": "제주집",
        "coordinates": [
            127.0211708,
            37.5040303
        ]
    },
    {
        "name": "세븐일레븐",
        "coordinates": [
            127.0092468,
            37.4905586
        ]
    },
    {
        "name": "이마트 24",
        "coordinates": [
            127.0218279,
            37.5023319
        ]
    },
    {
        "address": "서울특별시 강남구 113 봉은사로 호텔 더 디자이너스 리즈 강남 프리미어 지상1층 (논현동)",
        "amenity": "restaurant",
        "name": "카페 프라미스",
        "coordinates": [
            127.0259272,
            37.5054709
        ]
    },
    {
        "address": "서울특별시 서초구 279 서초대로",
        "amenity": "restaurant",
        "name": "어다미",
        "coordinates": [
            127.012128,
            37.493502
        ]
    },
    {
        "address": "서울특별시 강남구 9 봉은사로1길 (논현동,지상2층 201호)",
        "amenity": "restaurant",
        "name": "넘버텐 건",
        "coordinates": [
            127.0248384,
            37.5054327
        ]
    },
    {
        "address": "서울특별시 서초구 26 서래로5길 반포동 지하1층",
        "amenity": "cafe",
        "name": "스퀘어가든(Square Garden)",
        "coordinates": [
            126.9968895,
            37.497994
        ]
    },
    {
        "address": "서울특별시 서초구 58 명달로 서초동 지하1층",
        "amenity": "restaurant",
        "name": "우마이돈",
        "coordinates": [
            127.0048416,
            37.4825229
        ]
    },
    {
        "address": "서울특별시 서초구 45 서초대로77길 서초동 2층",
        "amenity": "restaurant",
        "name": "끼",
        "coordinates": [
            127.024836,
            37.5015879
        ]
    },
    {
        "name": "방배아크로타워",
        "coordinates": [
            126.9952998,
            37.4832317
        ]
    },
    {
        "address": "서울특별시 서초구 45 서초대로77길 서초동",
        "amenity": "restaurant",
        "name": "맛짱김밥천국",
        "coordinates": [
            127.024836,
            37.5015879
        ]
    },
    {
        "amenity": "restaurant",
        "name": "Deulkoch . Porridge.",
        "coordinates": [
            127.0247409,
            37.5016604
        ]
    },
    {
        "address": "서울특별시 서초구 104 방배로 105호 (방배동)",
        "amenity": "fast_food",
        "name": "아담만두 방배점",
        "coordinates": [
            126.9965919,
            37.4835859
        ]
    },
    {
        "address": "서울특별시 서초구 22 효령로55길 그린빌오피스텔 1층 101호 (서초동)",
        "amenity": "restaurant",
        "name": "이가네 김밥",
        "coordinates": [
            127.0146955,
            37.4857794
        ]
    },
    {
        "address": "서울특별시 서초구 35 06612 서초대로75길",
        "amenity": "bar",
        "name": "Wood Stock",
        "coordinates": [
            127.024887,
            37.5005677
        ]
    },
    {
        "address": "서울특별시 서초구 39 반포대로30길 2층 (서초동, 덕촌빌딩)",
        "amenity": "restaurant",
        "name": "ZEN(젠)",
        "coordinates": [
            127.0108091,
            37.492257
        ]
    },
    {
        "address": "서울특별시 서초구 18 방배로13길 1층 124호 (방배동, 방배아크로타워)",
        "amenity": "restaurant",
        "name": "통큰할매 쭈꾸미&낙지",
        "coordinates": [
            126.9953126,
            37.483155
        ]
    },
    {
        "address": "서울특별시 서초구 176 신반포로 신세계백화점 강남점 지하1층 (반포동)",
        "amenity": "restaurant",
        "name": "루트 키친",
        "coordinates": [
            127.0036505,
            37.5043705
        ]
    },
    {
        "amenity": "restaurant",
        "name": "몽중헌 반포점",
        "coordinates": [
            127.0105703,
            37.5035953
        ]
    },
    {
        "address": "서울특별시 서초구 27 반포대로21길 1층 108호 (서초동, 화원그랑빌 아파트)",
        "amenity": "restaurant",
        "name": "샤오짠 서초점",
        "coordinates": [
            127.0085152,
            37.4873753
        ]
    },
    {
        "name": "미니스톱",
        "coordinates": [
            127.0099182,
            37.5037727
        ]
    },
    {
        "address": "서울특별시 서초구 22 반포대로",
        "name": "세종학당재단",
        "coordinates": [
            127.0125953,
            37.4827925
        ]
    },
    {
        "address": "서울특별시 서초구 304 효령로 11층 11005호 (서초동, 국제전자센타)",
        "amenity": "fast_food",
        "name": "크림 앤 토마토",
        "coordinates": [
            127.017797,
            37.4847488
        ]
    },
    {
        "address": "서초구 194.0 서울특별시 신반포로",
        "amenity": "theatre",
        "name": "반포시네마 2관",
        "coordinates": [
            127.0063666,
            37.5052027
        ]
    },
    {
        "address": "서울특별시 강남구 23 봉은사로2길 역삼동 2층",
        "amenity": "restaurant",
        "name": "까사생갈비",
        "coordinates": [
            127.0262382,
            37.5031664
        ]
    },
    {
        "name": "서초황소",
        "coordinates": [
            127.0096627,
            37.5007136
        ]
    },
    {
        "address": "서울특별시 서초구 360 서초대로 지하1층 102호 (서초동)",
        "amenity": "bar",
        "name": "교대 원포차",
        "coordinates": [
            127.0207125,
            37.4955685
        ]
    },
    {
        "address": "서울특별시 서초구 2 39 서래로 반포동 2층",
        "amenity": "restaurant",
        "name": "고료리토키 서래마을점",
        "coordinates": [
            126.9982091,
            37.4985128
        ]
    },
    {
        "address": "서울특별시 서초구 195 서초중앙로 2층 (반포동, 지상)",
        "amenity": "restaurant",
        "name": "고구려서초점(주)엔타스",
        "coordinates": [
            127.0119095,
            37.4993655
        ]
    },
    {
        "address": "서울특별시 서초구 22 고무래로",
        "amenity": "restaurant",
        "name": "서래골 뚝배기",
        "coordinates": [
            127.010722,
            37.502511
        ]
    },
    {
        "address": "서울특별시 서초구 138 서운로 109호 (서초동, 서초동아타워)",
        "amenity": "fast_food",
        "name": "김밥천국",
        "coordinates": [
            127.0253063,
            37.4960238
        ]
    },
    {
        "address": "서울특별시 서초구 61 반포대로26길 1층 (서초동, 삼영빌딩)",
        "amenity": "restaurant",
        "name": "교대밀밭",
        "coordinates": [
            127.0123896,
            37.4914227
        ]
    },
    {
        "address": "서울특별시 서초구 48 효령로31길 방배동 1층",
        "amenity": "restaurant",
        "name": "교촌치킨 방배2호점",
        "coordinates": [
            126.9957301,
            37.4833727
        ]
    },
    {
        "amenity": "bank",
        "name": "KB국민은행",
        "coordinates": [
            127.0151722,
            37.486444
        ]
    },
    {
        "name": "서초역3번출구",
        "coordinates": [
            127.0079293,
            37.4908218
        ]
    },
    {
        "address": "서울특별시 서초구 100 반포대로22길 지층 (서초동)",
        "amenity": "restaurant",
        "name": "리밍",
        "coordinates": [
            127.0136217,
            37.4912593
        ]
    },
    {
        "address": "서울특별시 서초구 21 명달로8길 힐링캠퍼스 더공감 빌딩 1층 101호 (서초동)",
        "amenity": "restaurant",
        "name": "힐링푸드",
        "coordinates": [
            127.0063649,
            37.4818313
        ]
    },
    {
        "address": "서울특별시 서초구 138 서운로 1층 106호 (서초동, 서초동아타워)",
        "amenity": "restaurant",
        "name": "전주콩뿌리콩나물국밥",
        "coordinates": [
            127.0253063,
            37.4960238
        ]
    },
    {
        "name": "남부터미널역 3번출구",
        "coordinates": [
            127.0166067,
            37.4849864
        ]
    },
    {
        "address": "서울특별시 서초구 58 서초중앙로 피앤디 솔로빌 지하1층 B101-1호 (서초동)",
        "amenity": "restaurant",
        "name": "더브라이언스",
        "coordinates": [
            127.015487,
            37.4871317
        ]
    },
    {
        "amenity": "restaurant",
        "name": "오마뎅",
        "coordinates": [
            127.0107098,
            37.5010335
        ]
    },
    {
        "address": "서울특별시 서초구 197 06608 서운로",
        "name": "서초롯데캐슬클래식아파트",
        "coordinates": [
            127.0232184,
            37.5010681
        ]
    },
    {
        "name": "Toudou Chocolate",
        "coordinates": [
            126.9979043,
            37.4977174
        ]
    },
    {
        "address": "서울특별시 강남구 12 강남대로118길 논현동 1층",
        "amenity": "restaurant",
        "name": "마케집 논현점",
        "coordinates": [
            127.0247737,
            37.5063238
        ]
    },
    {
        "address": "서울특별시 서초구 1 법원로1길 서호빌딩 지하1층 103호 (서초동)",
        "amenity": "restaurant",
        "name": "전주가",
        "coordinates": [
            127.0104938,
            37.4932474
        ]
    },
    {
        "address": "서울특별시 강남구 27 봉은사로1길 (논현동,지상2층)",
        "amenity": "restaurant",
        "name": "브롱스 논현점",
        "coordinates": [
            127.0243128,
            37.5065273
        ]
    },
    {
        "amenity": "cafe",
        "name": "Cafe de Cine",
        "coordinates": [
            127.0218125,
            37.4849352
        ]
    },
    {
        "name": "Artedio",
        "coordinates": [
            126.9980854,
            37.4964188
        ]
    },
    {
        "address": "서울특별시 강남구 15 강남대로110길",
        "amenity": "restaurant",
        "name": "본도시락 신논현역점",
        "coordinates": [
            127.0260924,
            37.5039506
        ]
    },
    {
        "address": "서울특별시 강남구 10 봉은사로4길 역삼동 1층",
        "amenity": "restaurant",
        "name": "갓잇 강남점(GODEAT)",
        "coordinates": [
            127.0260814,
            37.5041725
        ]
    },
    {
        "address": "서울특별시 서초구 29-30 서초대로54길",
        "amenity": "restaurant",
        "name": "(주)에스에프이노베이션 스쿨푸드 서초 딜리버리점",
        "coordinates": [
            127.016981,
            37.492984
        ]
    },
    {
        "address": "서울특별시 서초구 69 반포대로28길 (서초동,동갑빌딩 2층)",
        "amenity": "restaurant",
        "name": "오리나라&짱뚱어",
        "coordinates": [
            127.0120931,
            37.4918526
        ]
    },
    {
        "amenity": "bank",
        "name": "씨티은행 (City Bank)",
        "coordinates": [
            127.0040124,
            37.4831459
        ]
    },
    {
        "address": "서울특별시 서초구 50 서초대로28길 방배동 1층",
        "amenity": "restaurant",
        "name": "원스플라워",
        "coordinates": [
            126.9965954,
            37.4862583
        ]
    },
    {
        "address": "서울특별시 서초구 28 효령로31길 방배동 1층",
        "amenity": "restaurant",
        "name": "새마을식당 방배점",
        "coordinates": [
            126.9962925,
            37.4824852
        ]
    },
    {
        "name": "올리브영",
        "coordinates": [
            126.998257,
            37.4985016
        ]
    },
    {
        "amenity": "atm",
        "name": "신한은행",
        "coordinates": [
            127.0238882,
            37.4970336
        ]
    },
    {
        "address": "서울특별시 서초구 23 서초대로53길 ITEA빌딩 1층 (서초동)",
        "amenity": "restaurant",
        "name": "쿤쏨차이",
        "coordinates": [
            127.0143569,
            37.4962208
        ]
    },
    {
        "address": "서울특별시 서초구 3 서초중앙로26길 서초동 1층",
        "amenity": "restaurant",
        "name": "방이편백 육분삼십",
        "coordinates": [
            127.0137681,
            37.4956603
        ]
    },
    {
        "address": "서울특별시 서초구 12 서초대로73길 세계빌딩 1층 (서초동)",
        "amenity": "restaurant",
        "name": "커피빈 강남역세계빌딩점",
        "coordinates": [
            127.0258793,
            37.4985973
        ]
    },
    {
        "address": "서울특별시 서초구 6 서래로8길",
        "name": "Ivy House",
        "coordinates": [
            126.9986889,
            37.4985362
        ]
    },
    {
        "name": "아이엠티2호텔",
        "coordinates": [
            127.012885,
            37.486801
        ]
    },
    {
        "address": "서울특별시 서초구 13 강남대로61길 2층 (서초동, 신흥빌딩)",
        "amenity": "restaurant",
        "name": "불닭발 땡초 동대문엽기떡볶이 강남점",
        "coordinates": [
            127.025431,
            37.4988419
        ]
    },
    {
        "name": "서래 종합보수",
        "coordinates": [
            126.9982584,
            37.4984138
        ]
    },
    {
        "address": "서울특별시 서초구 10 강남대로65길 5층",
        "amenity": "bar",
        "name": "플랫나인",
        "coordinates": [
            127.0249623,
            37.5004146
        ]
    },
    {
        "address": "서울특별시 서초구 47 서래로 반포동 1층",
        "amenity": "restaurant",
        "name": "카페 드 리옹 서래마을입구점",
        "coordinates": [
            126.998158,
            37.4991713
        ]
    },
    {
        "address": "서울특별시 서초구 22 반포대로",
        "amenity": "restaurant",
        "name": "서초평화빌딩사업소",
        "coordinates": [
            127.012718,
            37.482877
        ]
    },
    {
        "address": "서울특별시 서초구 365 사평대로 1층 105호 (반포동)",
        "amenity": "restaurant",
        "name": "대기정",
        "coordinates": [
            127.0229305,
            37.5043119
        ]
    },
    {
        "name": "이마트에브리데이교대점",
        "coordinates": [
            127.0128543,
            37.4881001
        ]
    },
    {
        "address": "서울특별시 서초구 81 효령로31길 방배동 1층",
        "amenity": "restaurant",
        "name": "수내닭꼬치 방배점",
        "coordinates": [
            126.9946495,
            37.484581
        ]
    },
    {
        "amenity": "bicycle_rental",
        "name": "반포종합운동장",
        "coordinates": [
            126.9964676,
            37.4997978
        ]
    },
    {
        "address": "서울특별시 서초구 36 효령로31길 방배동 1층",
        "amenity": "restaurant",
        "name": "왕십리중앙곱창",
        "coordinates": [
            126.9961019,
            37.4827784
        ]
    },
    {
        "address": "서울특별시 서초구 176 신반포로 11층 (반포동, 신세계백화점 강남점)",
        "amenity": "restaurant",
        "name": "평양면옥",
        "coordinates": [
            127.0036505,
            37.5043705
        ]
    },
    {
        "amenity": "restaurant",
        "name": "samgyetang Korean ginseng",
        "coordinates": [
            127.0259041,
            37.5038307
        ]
    },
    {
        "address": "서울특별시 서초구 12 서초대로38길 지하1층 (서초동, 마제스타시티, 힐스테이트 서리풀)",
        "amenity": "restaurant",
        "name": "모스버거 롯데마트서초점",
        "coordinates": [
            127.0057821,
            37.4903272
        ]
    },
    {
        "address": "서울특별시 서초구 117 효령로 2층,3층 (방배동)",
        "amenity": "restaurant",
        "name": "바나프레소 방배역점",
        "coordinates": [
            126.9969795,
            37.4814844
        ]
    },
    {
        "address": "서울특별시 서초구 72 반포대로30길 서초동 1층",
        "amenity": "restaurant",
        "name": "서초참치명가",
        "coordinates": [
            127.012525,
            37.4925106
        ]
    },
    {
        "address": "서울특별시 서초구 82 서초대로50길 (서초동, 지하)",
        "amenity": "restaurant",
        "name": "탐라도야지2",
        "coordinates": [
            127.0135736,
            37.4896267
        ]
    },
    {
        "name": "남부터미널",
        "coordinates": [
            127.0162809,
            37.4850243
        ]
    },
    {
        "address": "서울특별시 서초구 67 효령로53길 서초동",
        "amenity": "restaurant",
        "name": "포마토김밥",
        "coordinates": [
            127.01276,
            37.4875976
        ]
    },
    {
        "address": "서울특별시 서초구 6 법원로2길 서초동 1층",
        "amenity": "restaurant",
        "name": "중앙해장 서초점",
        "coordinates": [
            127.011711,
            37.4936052
        ]
    },
    {
        "amenity": "post_office",
        "name": "대법원우편취급국",
        "coordinates": [
            127.0051266,
            37.4922678
        ]
    },
    {
        "address": "서울특별시 강남구",
        "amenity": "restaurant",
        "name": "루프팔공팔",
        "coordinates": [
            127.0249819,
            37.5044265
        ]
    },
    {
        "name": "서초1동주민센터",
        "coordinates": [
            127.0196816,
            37.4903557
        ]
    },
    {
        "address": "서울특별시 서초구 79 서운로",
        "amenity": "restaurant",
        "name": "굽네치킨",
        "coordinates": [
            127.026232,
            37.490491
        ]
    },
    {
        "address": "서울특별시 서초구 279 서초대로 (서초동,지하1층)",
        "amenity": "restaurant",
        "name": "어다미",
        "coordinates": [
            127.0121575,
            37.4935092
        ]
    },
    {
        "address": "서울특별시 서초구 21-4 반포대로28길 102호 (서초동)",
        "amenity": "restaurant",
        "name": "인하순대국",
        "coordinates": [
            127.0098747,
            37.4908896
        ]
    },
    {
        "address": "서울특별시 서초구 63 반포대로30길 영서빌딩 1,2층 (서초동)",
        "amenity": "restaurant",
        "name": "락희옥 서초교대역점",
        "coordinates": [
            127.0120533,
            37.4926389
        ]
    },
    {
        "name": "남부터미널역 5번출구",
        "coordinates": [
            127.0159645,
            37.4848572
        ]
    },
    {
        "amenity": "fast_food",
        "name": "에그드랍 신논현역점",
        "coordinates": [
            127.023818,
            37.5026446
        ]
    },
    {
        "address": "서울특별시 서초구 194 신반포로",
        "amenity": "restaurant",
        "name": "펀비어킹 고속터미널점",
        "coordinates": [
            127.007063,
            37.505518
        ]
    },
    {
        "address": "서울특별시 서초구 19 방배로13길 방배동 1층",
        "amenity": "restaurant",
        "name": "홍짜장 방배점",
        "coordinates": [
            126.9954333,
            37.4827106
        ]
    },
    {
        "address": "서울특별시 서초구 29 신반포로15길 104호 (반포동, 신반포상가 1층)",
        "amenity": "fast_food",
        "name": "만나요 스넥",
        "coordinates": [
            126.9945809,
            37.5054274
        ]
    },
    {
        "amenity": "restaurant",
        "name": "김가네",
        "coordinates": [
            127.0115091,
            37.5012756
        ]
    },
    {
        "address": "서울특별시 서초구 23 서초대로75길 지하1층~지상4층 (서초동)",
        "amenity": "restaurant",
        "name": "이자카야 나무 (서초)",
        "coordinates": [
            127.0253443,
            37.4997785
        ]
    },
    {
        "amenity": "bank",
        "name": "신한은행",
        "coordinates": [
            127.0157087,
            37.4852862
        ]
    },
    {
        "address": "서울특별시 서초구 205 사평대로 파미에스테이션 1층 FP122호 (반포동)",
        "amenity": "restaurant",
        "name": "카리",
        "coordinates": [
            127.0066312,
            37.504024
        ]
    },
    {
        "name": "서초구립반포도서관.반포리체",
        "coordinates": [
            127.012497,
            37.5026207
        ]
    },
    {
        "name": "롯데 슈퍼",
        "coordinates": [
            127.0165266,
            37.4953709
        ]
    },
    {
        "address": "서울특별시 강남구 7 봉은사로2길 지상2층 202호 (역삼동)",
        "amenity": "restaurant",
        "name": "초이다이닝 강남점",
        "coordinates": [
            127.0256758,
            37.5042444
        ]
    },
    {
        "address": "서울특별시 서초구 6-6 고무래로 반포동 지하1층",
        "amenity": "restaurant",
        "name": "꼬시집",
        "coordinates": [
            127.0096785,
            37.5040886
        ]
    },
    {
        "address": "서울특별시 서초구 55 서초대로77길 1,2층 108~115, 201~215호 (서초동, 에이프로스퀘어)",
        "amenity": "restaurant",
        "name": "청춘스캔들",
        "coordinates": [
            127.0247022,
            37.5020654
        ]
    },
    {
        "address": "서울특별시 강남구 18 06120 강남대로114길",
        "amenity": "restaurant",
        "name": "정식당",
        "coordinates": [
            127.025817,
            37.5059702
        ]
    },
    {
        "name": "제약회관",
        "coordinates": [
            127.0017933,
            37.4823285
        ]
    },
    {
        "address": "서울특별시 서초구 12 반포대로",
        "amenity": "restaurant",
        "name": "원조서초갈비",
        "coordinates": [
            127.01292,
            37.481805
        ]
    },
    {
        "address": "서울특별시 서초구 20 반포대로28길 두원빌딩 1층 (서초동)",
        "amenity": "restaurant",
        "name": "동해강릉초당짬뽕순두부 서초교대점",
        "coordinates": [
            127.0098142,
            37.4905052
        ]
    },
    {
        "amenity": "bar",
        "name": "Pinet",
        "coordinates": [
            126.9990925,
            37.497877
        ]
    },
    {
        "address": "서울특별시 서초구 89 방배로 (방배동,(1층))",
        "amenity": "fast_food",
        "name": "죠스떡볶이",
        "coordinates": [
            126.9967898,
            37.4822846
        ]
    },
    {
        "address": "서울특별시 서초구 26 서초중앙로 116호 (서초동, 래미안 서초유니빌)",
        "amenity": "restaurant",
        "name": "두성전주콩나물국밥 남부터미널점",
        "coordinates": [
            127.0169968,
            37.4847044
        ]
    },
    {
        "address": "서울특별시 서초구 39 효령로33길 더파크908 1층 (방배동)",
        "amenity": "restaurant",
        "name": "카페 모호 방배",
        "coordinates": [
            126.9971829,
            37.4831283
        ]
    },
    {
        "address": "서울특별시 서초구 403 효령로 서초그랑자이상가 지하1층 B114호 (서초동)",
        "amenity": "restaurant",
        "name": "꼬모파스타(Pasta di Como)",
        "coordinates": [
            127.0262072,
            37.4890939
        ]
    },
    {
        "name": "서초그랑자이아파트",
        "coordinates": [
            127.0259764,
            37.4879541
        ]
    },
    {
        "address": "서울특별시 서초구 Jun.40 서초중앙로 서초동",
        "amenity": "restaurant",
        "name": "나래식당",
        "coordinates": [
            127.0164884,
            37.4856764
        ]
    },
    {
        "name": "풍림아이원",
        "coordinates": [
            127.0238377,
            37.4872479
        ]
    },
    {
        "address": "서울특별시 서초구 94 반포대로28길 서초동 지하1층",
        "amenity": "restaurant",
        "name": "클로버",
        "coordinates": [
            127.0134303,
            37.4919491
        ]
    },
    {
        "address": "서울특별시 강남구 13 강남대로112길",
        "amenity": "restaurant",
        "name": "동해별관",
        "coordinates": [
            127.0254982,
            37.5055878
        ]
    },
    {
        "name": "경부선 승차장",
        "coordinates": [
            127.0060373,
            37.505101
        ]
    },
    {
        "address": "서울특별시 서초구 269 서초대로 1층, 지하1, 2층 (서초동)",
        "amenity": "restaurant",
        "name": "서초대가 서초법원본점",
        "coordinates": [
            127.0112198,
            37.4933524
        ]
    },
    {
        "address": "서울특별시 서초구 178 방배로 방배동 1층",
        "amenity": "restaurant",
        "name": "곤트란쉐리에 내방점",
        "coordinates": [
            126.992848,
            37.4896464
        ]
    },
    {
        "address": "서울특별시 서초구 12 고무래로10길 반포동 지하1층",
        "amenity": "restaurant",
        "name": "마라홀릭 반포점",
        "coordinates": [
            127.0103749,
            37.501753
        ]
    },
    {
        "address": "서울특별시 서초구 33 남부순환로323길 지하1층 108호",
        "amenity": "restaurant",
        "name": "카페 드 요요",
        "coordinates": [
            127.0136364,
            37.4823941
        ]
    },
    {
        "address": "서울특별시 서초구 209 서초중앙로 반포동 1층",
        "amenity": "restaurant",
        "name": "(주)커피빈코리아 서초중앙로점",
        "coordinates": [
            127.0118056,
            37.5003189
        ]
    },
    {
        "name": "Toni & Guy",
        "coordinates": [
            126.9989457,
            37.4985362
        ]
    },
    {
        "name": "훼미리빌",
        "coordinates": [
            127.0101602,
            37.4998551
        ]
    },
    {
        "address": "서울특별시 서초구 56-3 반포대로28길 한라빌딩 2층 (서초동)",
        "amenity": "restaurant",
        "name": "느린마을양조장 교대점",
        "coordinates": [
            127.0115849,
            37.4913639
        ]
    },
    {
        "address": "서울특별시 서초구 10 효령로31길 나이스빌 1층 (방배동)",
        "amenity": "restaurant",
        "name": "한월길",
        "coordinates": [
            126.9967541,
            37.4817499
        ]
    },
    {
        "address": "서울특별시 서초구 5-6 반포대로8길 101호 (서초동)",
        "amenity": "restaurant",
        "name": "예술",
        "coordinates": [
            127.0124414,
            37.4834629
        ]
    },
    {
        "address": "서울특별시 서초구 176 신반포로 신세계백화점 강남점 지하1층 (반포동)",
        "amenity": "restaurant",
        "name": "노티드 강남 신세계",
        "coordinates": [
            127.0036505,
            37.5043705
        ]
    },
    {
        "address": "서울특별시 서초구 10-11 사평대로55길 반포동 1층",
        "amenity": "restaurant",
        "name": "강남쌀국수 신논현점",
        "coordinates": [
            127.0232163,
            37.5047252
        ]
    },
    {
        "address": "서울특별시 서초구 25 서초중앙로22길 1층 106호 (서초동, 서초리시온)",
        "amenity": "restaurant",
        "name": "하노이별 교대역점",
        "coordinates": [
            127.0154698,
            37.4934794
        ]
    },
    {
        "address": "서울특별시 서초구 10-7 서초중앙로5길 서초 어반하이 오피스텔 지하1층 B05호 (서초동)",
        "amenity": "restaurant",
        "name": "그랑블루",
        "coordinates": [
            127.0150755,
            37.4854829
        ]
    },
    {
        "name": "나이스가이 신논현점",
        "coordinates": [
            127.0215687,
            37.502675
        ]
    },
    {
        "name": "효령대군 이보 묘역",
        "coordinates": [
            126.9984409,
            37.4821962
        ]
    },
    {
        "address": "서울특별시 강남구 10 강남대로114길 3층 301호 (논현동)",
        "amenity": "restaurant",
        "name": "아이스걸크림보이 더테라스",
        "coordinates": [
            127.0252369,
            37.505751
        ]
    },
    {
        "address": "서울특별시 서초구 23 서초대로53길",
        "amenity": "restaurant",
        "name": "쿤쏨차이",
        "coordinates": [
            127.014327,
            37.496214
        ]
    },
    {
        "amenity": "bank",
        "name": "우리은행",
        "coordinates": [
            127.0045936,
            37.5013748
        ]
    },
    {
        "address": "서울특별시 서초구 18 서초중앙로24길 1층 (서초동, 현대빌딩 )",
        "amenity": "bar",
        "name": "바스버거 교대점",
        "coordinates": [
            127.0155612,
            37.494722
        ]
    },
    {
        "address": "서울특별시 서초구 3 서래로5길 (반포동,1층)",
        "amenity": "fast_food",
        "name": "삼번가우동",
        "coordinates": [
            126.9981476,
            37.4977241
        ]
    },
    {
        "address": "서울특별시 서초구 347 서초대로",
        "amenity": "fast_food",
        "name": "7번가 피자",
        "coordinates": [
            127.0191434,
            37.4955592
        ]
    },
    {
        "amenity": "dentist",
        "name": "메이플치과 강남점",
        "coordinates": [
            127.02445,
            37.50284
        ]
    },
    {
        "name": "방배열린문화센터.가야치과병원",
        "coordinates": [
            126.9927999,
            37.4891093
        ]
    },
    {
        "address": "서울특별시 서초구 125 서초대로 201호 (방배동)",
        "amenity": "restaurant",
        "name": "노스티모",
        "coordinates": [
            126.9959097,
            37.4886228
        ]
    },
    {
        "address": "서울특별시 서초구 32 서초대로54길 지하1층 (서초동, 추호주택 )",
        "amenity": "restaurant",
        "name": "소공동뚝배기집 교대점",
        "coordinates": [
            127.0161712,
            37.4928265
        ]
    },
    {
        "name": "방배1동주민센터.방배아크로타워",
        "coordinates": [
            126.9961463,
            37.4834494
        ]
    },
    {
        "address": "서울특별시 서초구 75 서초중앙로 동궁빌딩 2층 202호 (서초동)",
        "amenity": "restaurant",
        "name": "SOUL BUCKET(소울버킷)",
        "coordinates": [
            127.0143359,
            37.4885139
        ]
    },
    {
        "amenity": "parking_entrance",
        "name": "아크로리버파크 GATE 1",
        "coordinates": [
            126.9934172,
            37.5051933
        ]
    },
    {
        "address": "서울특별시 서초구 30 반포대로23길 서초동 1층",
        "amenity": "restaurant",
        "name": "신박사 콩사랑",
        "coordinates": [
            127.0072732,
            37.488976
        ]
    },
    {
        "address": "서울특별시 서초구 9-4 반포대로19길 서초동 1층",
        "amenity": "restaurant",
        "name": "텐쿡",
        "coordinates": [
            127.0088884,
            37.4871439
        ]
    },
    {
        "address": "서울특별시 서초구 350 서초대로 지하1층 101호 주방10호 (서초동, 서초동동아빌라트)",
        "amenity": "restaurant",
        "name": "맘마뭐야(치킨)서초점",
        "coordinates": [
            127.0197108,
            37.4952465
        ]
    },
    {
        "address": "서울특별시 서초구 176 신반포로 1층중층 M12호 (반포동)",
        "amenity": "restaurant",
        "name": "놀부보쌈족발",
        "coordinates": [
            127.0036505,
            37.5043705
        ]
    },
    {
        "address": "서울특별시 서초구 27 서초대로42길 서초동 1층",
        "amenity": "restaurant",
        "name": "다미선 교대점",
        "coordinates": [
            127.0092025,
            37.4908744
        ]
    },
    {
        "name": "한신서래아파트",
        "coordinates": [
            127.0010644,
            37.4990916
        ]
    },
    {
        "name": "서초 아크로비스타",
        "coordinates": [
            127.0131605,
            37.4983431
        ]
    },
    {
        "address": "서울특별시 서초구 12 서초중앙로8길 서초동 1층",
        "amenity": "restaurant",
        "name": "류",
        "coordinates": [
            127.0162762,
            37.4865456
        ]
    },
    {
        "address": "서울특별시 서초구 37 반포대로12길 서초 리슈빌 101호,102호 (서초동)",
        "amenity": "restaurant",
        "name": "육곱식당(서초점)",
        "coordinates": [
            127.0134032,
            37.4852519
        ]
    },
    {
        "name": "사평역",
        "coordinates": [
            127.0153599,
            37.5039423
        ]
    },
    {
        "address": "서울특별시 서초구 13 반포대로27길 1층 109호 (서초동, 서초꽃마을 주얼리)",
        "amenity": "bar",
        "name": "을지로 골뱅이 치킨",
        "coordinates": [
            127.0076179,
            37.4896782
        ]
    },
    {
        "address": "서울특별시 서초구 50 효령로53길 지젤시그니티 서초 1층 101, 104호 (서초동)",
        "amenity": "restaurant",
        "name": "(주)정우푸드 VEGE LETTER",
        "coordinates": [
            127.0132125,
            37.4871278
        ]
    },
    {
        "amenity": "cafe",
        "name": "El Sol",
        "coordinates": [
            126.9988766,
            37.497711
        ]
    },
    {
        "address": "서울특별시 서초구 33 서초대로25길 1층",
        "amenity": "restaurant",
        "name": "문쥬스",
        "coordinates": [
            126.9934667,
            37.4891761
        ]
    },
    {
        "address": "서울특별시 강남구 8 봉은사로1길 논현동 지하1층",
        "amenity": "restaurant",
        "name": "카사데타코 신논현점",
        "coordinates": [
            127.025109,
            37.5055061
        ]
    },
    {
        "address": "서울특별시 서초구 45 서초중앙로22길 (서초동, (2층))",
        "amenity": "restaurant",
        "name": "오부찌",
        "coordinates": [
            127.0164804,
            37.4935611
        ]
    },
    {
        "address": "서울특별시 서초구 2497 남부순환로",
        "name": "호서대학교 시니어 특화창업 보육센터",
        "coordinates": [
            127.0235962,
            37.4834593
        ]
    },
    {
        "address": "서울특별시 서초구 19 서래로7길 (반포동,(지상2층))",
        "amenity": "restaurant",
        "name": "황제",
        "coordinates": [
            126.9972227,
            37.4986541
        ]
    },
    {
        "address": "서울특별시 서초구 45 효령로53길 지하1층 B104 주방3호 (서초동, 서초이오빌)",
        "amenity": "restaurant",
        "name": "에스와이푸드",
        "coordinates": [
            127.0129208,
            37.4865629
        ]
    },
    {
        "name": "오거리",
        "coordinates": [
            126.9968379,
            37.4885196
        ]
    },
    {
        "name": "롯데칠성",
        "coordinates": [
            127.0252199,
            37.4950773
        ]
    },
    {
        "name": "BoConcept",
        "coordinates": [
            126.9953451,
            37.4938487
        ]
    },
    {
        "address": "서울특별시 서초구 292 효령로",
        "amenity": "restaurant",
        "name": "호로록국수",
        "coordinates": [
            127.015602,
            37.484138
        ]
    },
    {
        "address": "서울특별시 서초구 29 신반포로15길 지상동 2층호 (반포동)",
        "amenity": "restaurant",
        "name": "돈 치킨",
        "coordinates": [
            126.9945809,
            37.5054274
        ]
    },
    {
        "name": "Eden Hair",
        "coordinates": [
            126.9998167,
            37.4993804
        ]
    },
    {
        "address": "서울특별시 서초구 8 서래로",
        "amenity": "restaurant",
        "name": "Fin(핀)",
        "coordinates": [
            126.998254,
            37.495627
        ]
    },
    {
        "address": "서울특별시 서초구 21-2 사평대로55길 반포동 1층",
        "amenity": "restaurant",
        "name": "어랑 생선밥상",
        "coordinates": [
            127.0223472,
            37.5050698
        ]
    },
    {
        "address": "서울특별시 서초구 20 법원로2길 서초동 지하1층",
        "amenity": "restaurant",
        "name": "행자골",
        "coordinates": [
            127.0128532,
            37.4939457
        ]
    },
    {
        "address": "서울특별시 서초구 지하 신반포로 200, 지하1층 T-019호 (반포동, 강남터미널 지하쇼핑몰)",
        "amenity": "restaurant",
        "name": "쇼부 일본라멘 전문점 (강남고속터미널1호점)",
        "coordinates": [
            127.0049754,
            37.5060843
        ]
    },
    {
        "address": "서울특별시 서초구 275 반포대로 (반포동,주공종합10)",
        "amenity": "restaurant",
        "name": "신반포치킨",
        "coordinates": [
            126.999276,
            37.5029378
        ]
    },
    {
        "address": "서울특별시 서초구 104 반포대로 서초동 101호",
        "amenity": "restaurant",
        "name": "카소미야(서초점)",
        "coordinates": [
            127.0092499,
            37.4894963
        ]
    },
    {
        "amenity": "restaurant",
        "name": "도스타코스",
        "coordinates": [
            127.0243109,
            37.5027581
        ]
    },
    {
        "address": "서울특별시 서초구 13 사평대로57길 반포동 1층",
        "amenity": "restaurant",
        "name": "한입타코야끼",
        "coordinates": [
            127.0231685,
            37.5049079
        ]
    },
    {
        "address": "서울특별시 서초구 52 반포대로9길 서초동 1층",
        "amenity": "restaurant",
        "name": "버거온리",
        "coordinates": [
            127.0088604,
            37.4830776
        ]
    },
    {
        "name": "고속터미널",
        "coordinates": [
            127.0047415,
            37.5060746
        ]
    },
    {
        "amenity": "restaurant",
        "name": "Royal Mansion",
        "coordinates": [
            126.9976965,
            37.4991522
        ]
    },
    {
        "name": "반포동",
        "coordinates": [
            127.0014,
            37.50312
        ]
    },
    {
        "address": "서울특별시 서초구 18 사평대로22길 102호 (반포동)",
        "amenity": "restaurant",
        "name": "씨비 탭하우스(CB TAPHOUSE)",
        "coordinates": [
            126.9976633,
            37.4988125
        ]
    },
    {
        "address": "서울특별시 서초구 50 동광로39길 반포동 2층",
        "amenity": "restaurant",
        "name": "레스토랑 라모라",
        "coordinates": [
            126.9997156,
            37.4972179
        ]
    },
    {
        "address": "서울특별시 서초구 323 서초대로 삼풍프라자 지하1층 지하중1층2호 (서초동)",
        "amenity": "bar",
        "name": "교대슈퍼",
        "coordinates": [
            127.016829,
            37.4949095
        ]
    },
    {
        "address": "서울특별시 서초구 7-4 법원로2길 동용빌딩 지하2층 201호 중 4호 (서초동)",
        "amenity": "restaurant",
        "name": "낭만타코",
        "coordinates": [
            127.0115443,
            37.4940938
        ]
    },
    {
        "address": "서울특별시 서초구 87 방배로 2층 201호 (방배동)",
        "amenity": "restaurant",
        "name": "백소정 방배역점",
        "coordinates": [
            126.9969159,
            37.4821859
        ]
    },
    {
        "address": "서울특별시 서초구 125 서초중앙로 로이어즈타워 1층 102호 (서초동)",
        "amenity": "restaurant",
        "name": "싸다김밥 교대점",
        "coordinates": [
            127.0135195,
            37.493098
        ]
    },
    {
        "address": "서울특별시 서초구 55 서초중앙로24길 서초중앙플라자 1층 107호 (서초동)",
        "amenity": "restaurant",
        "name": "씨에스 에프앤씨",
        "coordinates": [
            127.0194013,
            37.4961633
        ]
    },
    {
        "address": "서울특별시 서초구 18 사평대로22길",
        "amenity": "restaurant",
        "name": "씨비 탭하우스(CB TAPHOUSE)",
        "coordinates": [
            126.997634,
            37.498806
        ]
    },
    {
        "address": "서울특별시 서초구 3 서초대로55길 1층 (서초동, 애니빌딩)",
        "amenity": "restaurant",
        "name": "경성회관",
        "coordinates": [
            127.0156426,
            37.4952408
        ]
    },
    {
        "address": "서울특별시 서초구 15 서초중앙로24길 서초동 2층",
        "amenity": "restaurant",
        "name": "캘리포니아(Cali Pho nia)",
        "coordinates": [
            127.0151476,
            37.4949519
        ]
    },
    {
        "amenity": "bank",
        "name": "산업은행",
        "coordinates": [
            127.0013112,
            37.5042198
        ]
    },
    {
        "address": "서울특별시 서초구 10-6 고무래로 층 103호 (반포동, 상영빌딩)",
        "amenity": "restaurant",
        "name": "명봉 양꼬치",
        "coordinates": [
            127.0097513,
            37.5035681
        ]
    },
    {
        "amenity": "cafe",
        "name": "스타벅스",
        "coordinates": [
            126.9984528,
            37.4992671
        ]
    },
    {
        "name": "교대역",
        "coordinates": [
            127.015909,
            37.494178
        ]
    },
    {
        "name": "Kings' Azit",
        "coordinates": [
            126.9984247,
            37.4974285
        ]
    },
    {
        "address": "서울특별시 서초구 21 효령로53길",
        "amenity": "restaurant",
        "name": "큰이모 부대찌개",
        "coordinates": [
            127.013514,
            37.485511
        ]
    },
    {
        "address": "서초구 57.0 서울특별시 효령로52길",
        "amenity": "theatre",
        "name": "Sound360",
        "coordinates": [
            127.0131893,
            37.4817965
        ]
    },
    {
        "address": "서울특별시 서초구 53 명달로 방배동 1층",
        "amenity": "restaurant",
        "name": "아빠는 요리사",
        "coordinates": [
            127.0044916,
            37.4822475
        ]
    },
    {
        "address": "서울특별시 서초구 58 반포대로 상가 1층 128호, 129호 (서초동, 서초아트자이)",
        "amenity": "restaurant",
        "name": "우청옥",
        "coordinates": [
            127.0115963,
            37.4857204
        ]
    },
    {
        "name": "Nail by Song",
        "coordinates": [
            126.9996981,
            37.4979669
        ]
    },
    {
        "address": "서울특별시 서초구 291 반포대로 111A, 111B, 113A",
        "amenity": "restaurant",
        "name": "슬로 반포원베일리점",
        "coordinates": [
            126.9995644,
            37.5049872
        ]
    },
    {
        "name": "Gallery 526",
        "coordinates": [
            127.0006067,
            37.497744
        ]
    },
    {
        "address": "서울특별시 서초구 25 서초중앙로22길",
        "amenity": "cafe",
        "name": "빽다방",
        "coordinates": [
            127.0154789,
            37.4934757
        ]
    },
    {
        "name": "모텔플럼",
        "coordinates": [
            127.014812,
            37.485645
        ]
    },
    {
        "address": "서울특별시 서초구 16 고무래로 반포동 1층",
        "amenity": "restaurant",
        "name": "담미온",
        "coordinates": [
            127.0103401,
            37.5031715
        ]
    },
    {
        "address": "서울특별시 서초구 10-7 서초중앙로5길 지하1층 B03호 (서초동)",
        "amenity": "restaurant",
        "name": "제이비(JBKITCHEN)",
        "coordinates": [
            127.0150755,
            37.4854829
        ]
    },
    {
        "name": "압구정",
        "coordinates": [
            127.0284705,
            37.5261356
        ]
    },
    {
        "amenity": "restaurant",
        "name": "놀부부대찌개철판구이",
        "coordinates": [
            127.0054003,
            37.5047739
        ]
    },
    {
        "address": "서울특별시 서초구 24 서초중앙로20길 서초동 1층",
        "amenity": "bar",
        "name": "노가리학교 교대점",
        "coordinates": [
            127.0154372,
            37.4922445
        ]
    },
    {
        "address": "서울특별시 서초구 18 방배로23길 방배동 2층",
        "amenity": "restaurant",
        "name": "다이카",
        "coordinates": [
            126.9932658,
            37.4863073
        ]
    },
    {
        "address": "서울특별시 서초구 21 반포대로27길 서초동 1층",
        "amenity": "restaurant",
        "name": "번패티번(BUN PATTY BUN)(서초점)",
        "coordinates": [
            127.0072154,
            37.4897401
        ]
    },
    {
        "name": "강남구청",
        "coordinates": [
            127.0413157,
            37.5171613
        ]
    },
    {
        "address": "서울특별시 서초구 15 법원로2길 1층 104호 (서초동, 길도 BD )",
        "amenity": "restaurant",
        "name": "우밀가 교대점",
        "coordinates": [
            127.0125772,
            37.4942593
        ]
    },
    {
        "name": "서초고교앞",
        "coordinates": [
            127.0043705,
            37.4908085
        ]
    },
    {
        "address": "서울특별시 서초구 54 반포대로14길",
        "amenity": "restaurant",
        "name": "마마푸드",
        "coordinates": [
            127.013832,
            37.485983
        ]
    },
    {
        "address": "서울특별시 서초구 30 반포대로14길 센츄리오피스텔 1층 102호 (서초동)",
        "amenity": "bar",
        "name": "카페 프레싱(cafe pressin')",
        "coordinates": [
            127.012721,
            37.485443
        ]
    },
    {
        "address": "서울특별시 서초구 63-8 서초중앙로 서초동 2층",
        "amenity": "restaurant",
        "name": "모모야 서초점",
        "coordinates": [
            127.014227,
            37.4875627
        ]
    },
    {
        "address": "서울특별시 서초구 230 서초중앙로 2층 203호 (반포동)",
        "amenity": "restaurant",
        "name": "맘스터치 서초중앙로점",
        "coordinates": [
            127.012017,
            37.5022594
        ]
    },
    {
        "address": "서울특별시 서초구 70 반포대로26길 서초동 1층",
        "amenity": "restaurant",
        "name": "투뿔나인",
        "coordinates": [
            127.0129436,
            37.4913854
        ]
    },
    {
        "address": "서울특별시 서초구 48 사평대로26길",
        "amenity": "restaurant",
        "name": "라무진 서래마을점",
        "coordinates": [
            126.998898,
            37.49818
        ]
    },
    {
        "amenity": "bank",
        "name": "수협",
        "coordinates": [
            127.0139492,
            37.4943439
        ]
    },
    {
        "address": "서울특별시 서초구 43 효령로33길 방배동 1층",
        "amenity": "restaurant",
        "name": "스시토와",
        "coordinates": [
            126.9971264,
            37.4832667
        ]
    },
    {
        "address": "서울특별시 서초구 18 방배로13길 1층 118호 (방배동, 방배아크로타워)",
        "amenity": "restaurant",
        "name": "귀인만두",
        "coordinates": [
            126.9953126,
            37.483155
        ]
    },
    {
        "name": "SJ펜션",
        "coordinates": [
            127.026164,
            37.505808
        ]
    },
    {
        "address": "서울특별시 서초구 10 강남대로79길 반포동 지하1층",
        "amenity": "restaurant",
        "name": "아나이스",
        "coordinates": [
            127.0232449,
            37.5053189
        ]
    },
    {
        "address": "서울특별시 서초구 79 서운로 (서초동,신동아2차상가 1층1호)",
        "amenity": "restaurant",
        "name": "굽네치킨",
        "coordinates": [
            127.0262616,
            37.4904976
        ]
    },
    {
        "address": "서울특별시 서초구 11 강남대로69길 서초동",
        "amenity": "fast_food",
        "name": "메차쿠차",
        "coordinates": [
            127.0242397,
            37.5014257
        ]
    },
    {
        "address": "서울특별시 서초구 463 강남대로 101호,201호,202호 (서초동)",
        "amenity": "restaurant",
        "name": "슈퍼두퍼 강남점",
        "coordinates": [
            127.0244853,
            37.5034751
        ]
    },
    {
        "amenity": "cafe",
        "name": "Flat",
        "coordinates": [
            127.0152929,
            37.4930181
        ]
    },
    {
        "address": "서울특별시 서초구 353 사평대로 1층 101호, 102호 (반포동)",
        "amenity": "bar",
        "name": "BHC 강남반포점",
        "coordinates": [
            127.0218021,
            37.5042192
        ]
    },
    {
        "amenity": "cafe",
        "name": "스타벅스",
        "coordinates": [
            127.0215605,
            37.4859183
        ]
    },
    {
        "address": "서울특별시 서초구 14 반포대로23길 서초동 지하1층",
        "amenity": "restaurant",
        "name": "신선옥",
        "coordinates": [
            127.0080109,
            37.489121
        ]
    },
    {
        "address": "서울특별시 서초구 188 서초중앙로 (서초동,아크로비스타 지하3층 지하A-318호)",
        "amenity": "restaurant",
        "name": "갯마을",
        "coordinates": [
            127.0133439,
            37.4982057
        ]
    },
    {
        "address": "서울특별시 서초구 30 반포대로 서초동 1층",
        "amenity": "restaurant",
        "name": "아비꼬 카레 예술의전당점",
        "coordinates": [
            127.0122179,
            37.4832076
        ]
    },
    {
        "address": "서울특별시 서초구 33 방배로15길 방배동 1층",
        "amenity": "restaurant",
        "name": "갤러리다함",
        "coordinates": [
            126.9940228,
            37.483588
        ]
    },
    {
        "address": "서울특별시 서초구 68 강남대로83길 반포동 101호",
        "amenity": "restaurant",
        "name": "오크통",
        "coordinates": [
            127.020501,
            37.5045872
        ]
    },
    {
        "address": "서울특별시 서초구 지하 신반포로 200, G-028호 (반포동, 강남터미널지하쇼핑몰)",
        "amenity": "fast_food",
        "name": "아로이 팟(강남고속터미널점)",
        "coordinates": [
            127.0049754,
            37.5060843
        ]
    },
    {
        "address": "서울특별시 서초구 75 서초대로50길",
        "amenity": "restaurant",
        "name": "무대리호프 & 포차",
        "coordinates": [
            127.013842,
            37.489881
        ]
    },
    {
        "address": "서울특별시 서초구 10-8 서초중앙로5길 1층 4호 (서초동)",
        "amenity": "restaurant",
        "name": "사계절",
        "coordinates": [
            127.0151779,
            37.4858045
        ]
    },
    {
        "address": "서울특별시 서초구 12 서초대로38길 지하1층 (서초동, 마제스타시티, 힐스테이트 서리풀)",
        "amenity": "restaurant",
        "name": "채선당 샤브보트 롯데마트 서초점",
        "coordinates": [
            127.0057936,
            37.4903279
        ]
    },
    {
        "address": "서울특별시 서초구 99 서초대로46길 현빌딩 2층 (서초동)",
        "amenity": "restaurant",
        "name": "청담이상 서초교대점",
        "coordinates": [
            127.0135092,
            37.490213
        ]
    },
    {
        "address": "서울특별시 서초구 10 강남대로61길 지하1층",
        "amenity": "restaurant",
        "name": "스트라이크존 비어 강남",
        "coordinates": [
            127.025472,
            37.4992575
        ]
    },
    {
        "name": "잠실새내",
        "coordinates": [
            127.0845585,
            37.5116445
        ]
    },
    {
        "address": "서울특별시 서초구 176 신반포로",
        "amenity": "restaurant",
        "name": "THE LOUNGE(더 라운지)",
        "coordinates": [
            127.004748,
            37.503902
        ]
    },
    {
        "address": "서울특별시 서초구 9-4 반포대로19길 1층",
        "amenity": "restaurant",
        "name": "텐쿡",
        "coordinates": [
            127.0088511,
            37.4871472
        ]
    },
    {
        "address": "서울특별시 서초구 15 법원로3길 서초동 지하1층",
        "amenity": "restaurant",
        "name": "대나무골 2호점",
        "coordinates": [
            127.0088754,
            37.4931766
        ]
    },
    {
        "address": "서울특별시 서초구 10 서래로6길 반포4동근린빌딩 지하1층 (반포동)",
        "amenity": "restaurant",
        "name": "심바",
        "coordinates": [
            126.9989029,
            37.4976974
        ]
    },
    {
        "address": "서울특별시 서초구 31 효령로31길 103호",
        "amenity": "restaurant",
        "name": "타코로 서울방배역점",
        "coordinates": [
            126.9957599,
            37.4827161
        ]
    },
    {
        "address": "서울특별시 서초구 15 서초대로46길 2층",
        "amenity": "restaurant",
        "name": "미드나잇",
        "coordinates": [
            127.0102073,
            37.4918403
        ]
    },
    {
        "name": "Zzang Games",
        "coordinates": [
            127.0252749,
            37.5019791
        ]
    },
    {
        "address": "서울특별시 서초구 64 반포대로26길 서초동 지하1층",
        "amenity": "restaurant",
        "name": "강남황태찜",
        "coordinates": [
            127.0125734,
            37.4912393
        ]
    },
    {
        "address": "서울특별시 서초구 48-3 서초대로54길 예성빌딩 1층 (서초동)",
        "amenity": "restaurant",
        "name": "포스타 테이블",
        "coordinates": [
            127.0167149,
            37.4920313
        ]
    },
    {
        "name": "삼성래미안.이수역방향",
        "coordinates": [
            127.0018492,
            37.5036468
        ]
    },
    {
        "address": "서울특별시 강남구 15 강남대로114길 논현동 1층",
        "amenity": "restaurant",
        "name": "대포집",
        "coordinates": [
            127.0255589,
            37.5061139
        ]
    },
    {
        "address": "서울특별시 서초구 64 반포대로26길 1층 가호 (서초동)",
        "amenity": "restaurant",
        "name": "호랑이초밥 교대점",
        "coordinates": [
            127.0125734,
            37.4912393
        ]
    },
    {
        "name": "연세박세진",
        "coordinates": [
            126.9984944,
            37.4992437
        ]
    },
    {
        "address": "서울특별시 강남구 22 강남대로118길 지상2층",
        "amenity": "restaurant",
        "name": "(주)낙타브루잉",
        "coordinates": [
            127.0251559,
            37.5066349
        ]
    },
    {
        "amenity": "cafe",
        "name": "공차",
        "coordinates": [
            126.9940838,
            37.4874504
        ]
    },
    {
        "address": "서울특별시 서초구 12 반포대로 서초동 2층",
        "amenity": "restaurant",
        "name": "원조서초갈비",
        "coordinates": [
            127.0129495,
            37.4818117
        ]
    },
    {
        "address": "서울특별시 서초구 165 신반포로 반포쇼핑타운 지하1층 15,16,17호 (잠원동)",
        "amenity": "restaurant",
        "name": "범주당",
        "coordinates": [
            127.0019616,
            37.5056789
        ]
    },
    {
        "address": "서울특별시 서초구 194 06545 신반포로",
        "amenity": "place_of_worship",
        "name": "고속터미널성당",
        "coordinates": [
            127.0054509,
            37.5052575
        ]
    },
    {
        "address": "서울특별시 서초구 79 서초대로50길 1층,2층,3층 (서초동)",
        "amenity": "restaurant",
        "name": "도톤보리 교대점",
        "coordinates": [
            127.0138939,
            37.4897581
        ]
    },
    {
        "name": "뉴코아아울렛 사거리",
        "coordinates": [
            127.0071352,
            37.5108214
        ]
    },
    {
        "address": "서울특별시 서초구 24 서초대로73길 서초동",
        "amenity": "restaurant",
        "name": "강남대가",
        "coordinates": [
            127.0251713,
            37.499542
        ]
    },
    {
        "address": "서울특별시 서초구 55 서초중앙로24길 제1층 111호 (서초동)",
        "amenity": "restaurant",
        "name": "제이제이 컴퍼니",
        "coordinates": [
            127.0194013,
            37.4961633
        ]
    },
    {
        "address": "서울특별시 서초구 188 서초중앙로 지하 319호 (서초동, 아크로비스타)",
        "amenity": "restaurant",
        "name": "솔솔카페&케이크",
        "coordinates": [
            127.0133439,
            37.4982057
        ]
    },
    {
        "address": "서울특별시 서초구 43 서초대로77길 서초동 1층",
        "amenity": "restaurant",
        "name": "응 야끼도리",
        "coordinates": [
            127.0249261,
            37.5013994
        ]
    },
    {
        "name": "Dolce Dono",
        "coordinates": [
            126.9976193,
            37.4980595
        ]
    },
    {
        "name": "서초1동주민센터",
        "coordinates": [
            127.0192223,
            37.4896367
        ]
    },
    {
        "address": "서울특별시 서초구 304 효령로 (서초동,전자센타 11층28호)",
        "amenity": "restaurant",
        "name": "CAFE GOUTIER(카페구띠에)",
        "coordinates": [
            127.017797,
            37.4847488
        ]
    },
    {
        "address": "서울특별시 서초구 76 반포대로28길 201호 (서초동)",
        "amenity": "restaurant",
        "name": "마라청춘 마라탕",
        "coordinates": [
            127.0124987,
            37.4917303
        ]
    },
    {
        "address": "서울특별시 서초구 176 신반포로 신세계백화점 강남점 지하1층 (반포동)",
        "amenity": "restaurant",
        "name": "일익스프레스",
        "coordinates": [
            127.0036505,
            37.5043705
        ]
    },
    {
        "address": "서울특별시 서초구 305 효령로 1층 106호 (서초동, 부속 11동상가)",
        "amenity": "restaurant",
        "name": "원조 강영숙 봉평메밀촌",
        "coordinates": [
            127.017593,
            37.4855801
        ]
    },
    {
        "amenity": "fuel",
        "name": "GS 칼텍스",
        "coordinates": [
            127.0016935,
            37.5045694
        ]
    },
    {
        "address": "서울특별시 서초구 35 효령로27길 101호 (방배동)",
        "amenity": "restaurant",
        "name": "피제이피자",
        "coordinates": [
            126.9945798,
            37.4823371
        ]
    },
    {
        "address": "서울특별시 서초구 7 서초중앙로20길 서초동",
        "amenity": "restaurant",
        "name": "청솔감자탕",
        "coordinates": [
            127.0145293,
            37.4923335
        ]
    },
    {
        "address": "서울특별시 서초구 8 강남대로69길 케이아이타워(K I타워) 2층 (서초동)",
        "amenity": "restaurant",
        "name": "투썸플레이스 강남KI타워점",
        "coordinates": [
            127.0246748,
            37.5018463
        ]
    },
    {
        "amenity": "fast_food",
        "name": "Super Kitchen",
        "coordinates": [
            126.9981766,
            37.4979675
        ]
    },
    {
        "address": "서울특별시 서초구 29-1 방배로28길 지층 (방배동)",
        "amenity": "restaurant",
        "name": "세러데이즈(Saturdays)",
        "coordinates": [
            126.9936751,
            37.49078
        ]
    },
    {
        "address": "서울특별시 강남구 17 봉은사로2길 역삼동 지하1층",
        "amenity": "restaurant",
        "name": "감성캠핑맥주",
        "coordinates": [
            127.0260306,
            37.5035293
        ]
    },
    {
        "amenity": "police",
        "name": "상명치안센터",
        "coordinates": [
            127.0044957,
            37.4823719
        ]
    },
    {
        "address": "서울특별시 서초구 195 신반포로 지층 11,12,13,14호 (잠원동, 반포쇼핑타운 5동)",
        "amenity": "restaurant",
        "name": "일번지육개장",
        "coordinates": [
            127.0052955,
            37.5065959
        ]
    },
    {
        "name": "Timothy Art",
        "coordinates": [
            126.9990069,
            37.4988066
        ]
    },
    {
        "address": "서울특별시 서초구 26 사임당로",
        "amenity": "restaurant",
        "name": "705 사케집",
        "coordinates": [
            127.012946,
            37.487656
        ]
    },
    {
        "address": "서울특별시 서초구 54 서초중앙로 서초동 1층",
        "amenity": "restaurant",
        "name": "담미온",
        "coordinates": [
            127.0155261,
            37.4867553
        ]
    },
    {
        "name": "신반포역 4번출구",
        "coordinates": [
            126.9959649,
            37.5032722
        ]
    },
    {
        "address": "서울특별시 서초구 291 반포대로 B106호",
        "amenity": "restaurant",
        "name": "방배김밥 반포원베일리점",
        "coordinates": [
            126.9994919,
            37.5049489
        ]
    },
    {
        "address": "서울특별시 서초구 26 서래로 (반포동,2층)",
        "amenity": "restaurant",
        "name": "씨실리",
        "coordinates": [
            126.9985215,
            37.4973337
        ]
    },
    {
        "address": "서울특별시 서초구 11 사평대로52길 서초동 1층",
        "amenity": "restaurant",
        "name": "옥토스",
        "coordinates": [
            127.0226248,
            37.5026996
        ]
    },
    {
        "amenity": "cafe",
        "name": "Gio Cafe",
        "coordinates": [
            127.0148413,
            37.4881598
        ]
    },
    {
        "address": "서울특별시 서초구 45 06652 효령로53길",
        "name": "Seocho EO-vil",
        "coordinates": [
            127.0129615,
            37.4865684
        ]
    },
    {
        "address": "서울특별시 서초구 35 서초대로77길",
        "amenity": "cafe",
        "name": "SLOW",
        "coordinates": [
            127.025267,
            37.500826
        ]
    },
    {
        "address": "서울특별시 서초구 24 서래로6길 (반포동,2층)",
        "amenity": "restaurant",
        "name": "유다",
        "coordinates": [
            126.9997391,
            37.4976078
        ]
    },
    {
        "name": "구비드(GUBED)",
        "coordinates": [
            127.008279,
            37.4868915
        ]
    },
    {
        "address": "서울특별시 서초구 7-4 법원로2길 서초동",
        "amenity": "restaurant",
        "name": "영덕집",
        "coordinates": [
            127.0115443,
            37.4940938
        ]
    },
    {
        "name": "반포고교",
        "coordinates": [
            127.0158854,
            37.501703
        ]
    },
    {
        "address": "서울특별시 서초구 45 반포대로10길 서초동 1층",
        "amenity": "restaurant",
        "name": "예술상회 남부점 냉동삼겹살",
        "coordinates": [
            127.0143082,
            37.4841969
        ]
    },
    {
        "address": "서울특별시 서초구 13 서래로 반포동 1층",
        "amenity": "restaurant",
        "name": "깐부치킨(서래점)",
        "coordinates": [
            126.9979992,
            37.4962615
        ]
    },
    {
        "address": "서울특별시 서초구 264 효령로 서초동 1층",
        "amenity": "restaurant",
        "name": "부산아지매국밥 BC카드점",
        "coordinates": [
            127.0131568,
            37.4841856
        ]
    },
    {
        "name": "교대역 3번출구",
        "coordinates": [
            127.0149983,
            37.4942175
        ]
    },
    {
        "address": "서울특별시 서초구 28 서초중앙로22길 서초동",
        "amenity": "restaurant",
        "name": "이모네",
        "coordinates": [
            127.0154795,
            37.4931531
        ]
    },
    {
        "name": "지하철3호선교대역",
        "coordinates": [
            127.0141511,
            37.4918043
        ]
    },
    {
        "name": "이마트 24",
        "coordinates": [
            127.0177673,
            37.4997382
        ]
    },
    {
        "address": "서울특별시 서초구 287 반포대로",
        "amenity": "restaurant",
        "name": "산들해반포",
        "coordinates": [
            127.000755,
            37.5045264
        ]
    },
    {
        "address": "서울특별시 서초구 205 사평대로 FP112호 (반포동, 파미에스테이션)",
        "amenity": "fast_food",
        "name": "villa de spicy(빌라 드 스파이시)",
        "coordinates": [
            127.0066312,
            37.504024
        ]
    },
    {
        "address": "서울특별시 서초구 138 서운로 지하1층 주방26호 (서초동, 서초동아타워)",
        "amenity": "restaurant",
        "name": "정키친",
        "coordinates": [
            127.0253063,
            37.4960238
        ]
    },
    {
        "amenity": "cafe",
        "name": "Fame Coffee",
        "coordinates": [
            127.0170856,
            37.4884512
        ]
    },
    {
        "address": "서울특별시 서초구 14 고무래로 A호",
        "amenity": "restaurant",
        "name": "연제네 반포점",
        "coordinates": [
            127.0099331,
            37.5032532
        ]
    },
    {
        "address": "서울특별시 서초구 61 반포대로26길",
        "amenity": "restaurant",
        "name": "교대밀밭",
        "coordinates": [
            127.01236,
            37.491416
        ]
    },
    {
        "name": "래미안에스티지",
        "coordinates": [
            127.0259166,
            37.4931604
        ]
    },
    {
        "amenity": "restaurant",
        "name": "papa bear katsudon",
        "coordinates": [
            127.023429,
            37.4998924
        ]
    },
    {
        "address": "서울특별시 서초구 66 서초대로50길 서초동 1층",
        "amenity": "restaurant",
        "name": "더맛있는족발보쌈교대점",
        "coordinates": [
            127.0134541,
            37.490408
        ]
    },
    {
        "name": "교보문고",
        "coordinates": [
            127.0242646,
            37.5038251
        ]
    },
    {
        "amenity": "fast_food",
        "name": "맘스터치",
        "coordinates": [
            126.9984515,
            37.498326
        ]
    },
    {
        "address": "서울특별시 서초구 25 서초중앙로22길 1층 113호 (서초동, 서초리시온 )",
        "amenity": "restaurant",
        "name": "대림국수",
        "coordinates": [
            127.0154698,
            37.4934794
        ]
    },
    {
        "address": "서울특별시 서초구 21 방배로19길 (방배동,(지상1층))",
        "amenity": "restaurant",
        "name": "바다목장",
        "coordinates": [
            126.993907,
            37.4849469
        ]
    },
    {
        "name": "엠아이에듀케이션(주)서초지점",
        "coordinates": [
            127.0113178,
            37.4999858
        ]
    },
    {
        "address": "서울특별시 서초구 194 신반포로 (반포동, 경부선 본관 지하1층 大2-1)",
        "amenity": "restaurant",
        "name": "놀부부대찌개 & 철판구이 터미널점",
        "coordinates": [
            127.0070921,
            37.505525
        ]
    },
    {
        "address": "서울특별시 서초구 12 강남대로65길 한서그린빌리지 110호 (서초동)",
        "amenity": "restaurant",
        "name": "신선한형제들",
        "coordinates": [
            127.0248268,
            37.5005031
        ]
    },
    {
        "address": "서울특별시 서초구 33 서래로5길 반포동 1층",
        "amenity": "restaurant",
        "name": "와인포럼(WINE FORUM)",
        "coordinates": [
            126.9963434,
            37.4978179
        ]
    },
    {
        "address": "서울특별시 서초구 18 효령로53길 석탑오피스텔 103호 (서초동)",
        "amenity": "restaurant",
        "name": "원더 케이크",
        "coordinates": [
            127.0139629,
            37.485506
        ]
    },
    {
        "name": "GS25",
        "coordinates": [
            127.012872,
            37.4876026
        ]
    },
    {
        "address": "서울특별시 서초구 12 남부순환로331길 (서초동, (1층))",
        "amenity": "restaurant",
        "name": "포 프롬나드",
        "coordinates": [
            127.0187338,
            37.4831037
        ]
    },
    {
        "address": "서울특별시 서초구 34 반포대로21길",
        "amenity": "restaurant",
        "name": "칠성훼미리외식산업",
        "coordinates": [
            127.0080126,
            37.4872758
        ]
    },
    {
        "address": "서울특별시 강남구 19 봉은사로2길 지상1층,지상2층 (역삼동)",
        "amenity": "restaurant",
        "name": "틴틴",
        "coordinates": [
            127.0261741,
            37.5035459
        ]
    },
    {
        "address": "서울특별시 서초구 214 효령로",
        "amenity": "restaurant",
        "name": "산동",
        "coordinates": [
            127.007713,
            37.483124
        ]
    },
    {
        "address": "서울특별시 서초구 48 사평대로26길 미성빌딩 1층 104호 (반포동)",
        "amenity": "restaurant",
        "name": "맘 코리안 비스트로",
        "coordinates": [
            126.9989279,
            37.4981864
        ]
    },
    {
        "address": "서울특별시 서초구 47 서초중앙로22길 서초동",
        "amenity": "restaurant",
        "name": "임금님밥상",
        "coordinates": [
            127.0166974,
            37.4936278
        ]
    },
    {
        "address": "서울특별시 강남구 20 강남대로114길 지하1층 1호 (논현동)",
        "amenity": "restaurant",
        "name": "드리밍컴퍼니",
        "coordinates": [
            127.0259032,
            37.5059522
        ]
    },
    {
        "address": "서울특별시 서초구 19-15 명달로8길 서초동",
        "amenity": "cafe",
        "name": "루(RUE) 1487",
        "coordinates": [
            127.006204,
            37.4824464
        ]
    },
    {
        "address": "서울특별시 서초구 307 서초대로 지하1층 가호 (서초동)",
        "amenity": "restaurant",
        "name": "신태평양",
        "coordinates": [
            127.0151537,
            37.4944208
        ]
    },
    {
        "name": "모텔덴버",
        "coordinates": [
            127.01629,
            37.49366
        ]
    },
    {
        "address": "서울특별시 서초구 138 서운로 지하1층",
        "amenity": "restaurant",
        "name": "훈감상회 강남점",
        "coordinates": [
            127.0251211,
            37.4960032
        ]
    },
    {
        "address": "서울특별시 서초구 151 서초중앙로",
        "amenity": "restaurant",
        "name": "박식곳",
        "coordinates": [
            127.0129,
            37.495147
        ]
    },
    {
        "name": "서래마을.서래글로벌빌리지센터",
        "coordinates": [
            126.9982345,
            37.4979248
        ]
    },
    {
        "address": "서울특별시 서초구 58 효령로31길 방배동 지하1층",
        "amenity": "bar",
        "name": "다트하는 고양이",
        "coordinates": [
            126.9955232,
            37.4836949
        ]
    },
    {
        "address": "서울특별시 서초구 지하 신반포로 200, G-012호 (반포동, 강남터미널지하쇼핑몰)",
        "amenity": "restaurant",
        "name": "츄로스타",
        "coordinates": [
            127.0049754,
            37.5060843
        ]
    },
    {
        "address": "서울특별시 서초구 499 강남대로 2층",
        "amenity": "restaurant",
        "name": "영동교집",
        "coordinates": [
            127.023076,
            37.5067275
        ]
    },
    {
        "address": "서울특별시 서초구 May.64 반포대로39길 (반포동,(지상1층))",
        "amenity": "restaurant",
        "name": "버드나무집",
        "coordinates": [
            127.0011787,
            37.4980157
        ]
    },
    {
        "address": "서울특별시 서초구 58 사임당로 서초동 1층",
        "amenity": "restaurant",
        "name": "소쇄원",
        "coordinates": [
            127.0163478,
            37.4886105
        ]
    },
    {
        "address": "서울특별시 서초구 437 강남대로 1층",
        "amenity": "restaurant",
        "name": "이찌타코",
        "coordinates": [
            127.025489,
            37.5013266
        ]
    },
    {
        "address": "서울특별시 서초구 17 사평대로22길 반포동 1층",
        "amenity": "restaurant",
        "name": "베스퍼",
        "coordinates": [
            126.9979075,
            37.4988117
        ]
    },
    {
        "address": "서울특별시 서초구 9 서초대로49길 지하1층 1003호 (서초동)",
        "amenity": "restaurant",
        "name": "잘차림 도시락",
        "coordinates": [
            127.0118969,
            37.4941083
        ]
    },
    {
        "address": "서울특별시 서초구 28 서초중앙로22길 서초동 1층",
        "amenity": "restaurant",
        "name": "슬로우캘리 교대점",
        "coordinates": [
            127.0154795,
            37.4931531
        ]
    },
    {
        "address": "서울특별시 서초구 29 사평대로55길 반포동 1층",
        "amenity": "restaurant",
        "name": "도피오 로스터리",
        "coordinates": [
            127.0221727,
            37.5052544
        ]
    },
    {
        "address": "서울특별시 서초구 지하 신반포로 200, G-10호 (반포동, 강남터미널지하쇼핑몰)",
        "amenity": "restaurant",
        "name": "마당",
        "coordinates": [
            127.0049754,
            37.5060843
        ]
    },
    {
        "address": "서울특별시 서초구 71 반포대로14길 1층 112호 (서초동, 엘지서초에클라트)",
        "amenity": "fast_food",
        "name": "바르다 김선생 남부터미널점",
        "coordinates": [
            127.0145407,
            37.4868582
        ]
    },
    {
        "address": "서울특별시 서초구 64 동광로49길 반포동 1층",
        "amenity": "restaurant",
        "name": "소울",
        "coordinates": [
            127.0015892,
            37.496071
        ]
    },
    {
        "address": "서울특별시 서초구 17 서초대로42길 서초동 1층",
        "amenity": "restaurant",
        "name": "카몽",
        "coordinates": [
            127.0089556,
            37.4912301
        ]
    },
    {
        "address": "서울특별시 서초구 1",
        "amenity": "fast_food",
        "name": "KFC",
        "coordinates": [
            127.0050461,
            37.5065035
        ]
    },
    {
        "address": "서울특별시 서초구 437 강남대로",
        "amenity": "restaurant",
        "name": "이찌타코 3",
        "coordinates": [
            127.0254667,
            37.5013089
        ]
    },
    {
        "address": "서울특별시 강남구 480 강남대로 논현동 1층",
        "amenity": "restaurant",
        "name": "메가엠지씨커피 신논현역점",
        "coordinates": [
            127.02461,
            37.5053059
        ]
    },
    {
        "address": "서울특별시 서초구 12 서초대로38길",
        "amenity": "restaurant",
        "name": "발재반점 서초롯데마트점",
        "coordinates": [
            127.005695,
            37.490048
        ]
    },
    {
        "address": "서울특별시 서초구 59 남부순환로323길 101호 (서초동, 호수빌딩)",
        "amenity": "restaurant",
        "name": "서초회관",
        "coordinates": [
            127.0134378,
            37.483538
        ]
    },
    {
        "amenity": "bicycle_rental",
        "name": "고속터미널역 8-1번, 8-2번 출구 사이",
        "coordinates": [
            127.0039444,
            37.5061989
        ]
    },
    {
        "address": "서울특별시 서초구 176 신반포로",
        "amenity": "restaurant",
        "name": "장터국수(센트럴시티점)",
        "coordinates": [
            127.0031277,
            37.504097
        ]
    },
    {
        "address": "서울특별시 서초구 122 서초대로 방배동 지하1층",
        "amenity": "restaurant",
        "name": "천지항아리갈비",
        "coordinates": [
            126.995849,
            37.4879898
        ]
    },
    {
        "amenity": "prep_school",
        "name": "서초 크라센어학원",
        "coordinates": [
            127.0118652,
            37.5002838
        ]
    },
    {
        "address": "서울특별시 서초구 14-4 반포대로22길 지하1층 (서초동, 와이앤케이빌딩)",
        "amenity": "restaurant",
        "name": "떠나지마",
        "coordinates": [
            127.0102513,
            37.4887481
        ]
    },
    {
        "name": "Sony",
        "coordinates": [
            127.0236884,
            37.5024533
        ]
    },
    {
        "address": "서울특별시 서초구 33 사임당로 홍인빌딩 1층 1호 (서초동)",
        "amenity": "restaurant",
        "name": "신사골감자탕 교대점",
        "coordinates": [
            127.0136757,
            37.4884096
        ]
    },
    {
        "address": "서울특별시 서초구 15 법원로2길 지하1층 101호 (서초동)",
        "amenity": "restaurant",
        "name": "참배나무 오리집",
        "coordinates": [
            127.0125772,
            37.4942593
        ]
    },
    {
        "address": "서울특별시 서초구 10 서초대로53길 서초동 1층",
        "amenity": "restaurant",
        "name": "명가백암왕순대",
        "coordinates": [
            127.0153134,
            37.4952616
        ]
    },
    {
        "address": "서울특별시 서초구 183 동광로 반포동 1층",
        "amenity": "restaurant",
        "name": "I'm(아이엠)",
        "coordinates": [
            127.0017168,
            37.4937789
        ]
    },
    {
        "address": "서울특별시 서초구 32 고무래로 반포트라이엄프메딕스빌딩 5층 502호 (반포동)",
        "amenity": "restaurant",
        "name": "커피클리닉",
        "coordinates": [
            127.0119257,
            37.5024374
        ]
    },
    {
        "address": "서울특별시 서초구 304 효령로 지하1층 1091호, 1092호, 1093호 (서초동, 국제전자센터)",
        "amenity": "restaurant",
        "name": "이땅원",
        "coordinates": [
            127.017797,
            37.4847488
        ]
    },
    {
        "address": "서울특별시 서초구 94 사평대로 (반포동,1, 2 층)",
        "amenity": "restaurant",
        "name": "전남식당1호점",
        "coordinates": [
            126.9949002,
            37.4982633
        ]
    },
    {
        "address": "서울특별시 서초구 138 서운로 지하1층 주방14호 (서초동, 서초동아타워)",
        "amenity": "restaurant",
        "name": "훈감상회 강남점",
        "coordinates": [
            127.0253063,
            37.4960238
        ]
    },
    {
        "address": "서울특별시 서초구 182-8 효령로 방배동 1층",
        "amenity": "restaurant",
        "name": "민어사랑",
        "coordinates": [
            127.0040455,
            37.4822083
        ]
    },
    {
        "name": "서울고등학교",
        "coordinates": [
            127.0050002,
            37.4829303
        ]
    },
    {
        "name": "반포나들목",
        "coordinates": [
            127.0185355,
            37.5033546
        ]
    },
    {
        "address": "서울특별시 서초구 216 효령로 2층, 3층, 4층 (서초동)",
        "amenity": "restaurant",
        "name": "한우만",
        "coordinates": [
            127.0078886,
            37.4831596
        ]
    },
    {
        "address": "서울특별시 서초구 37 서초대로77길 6층 (서초동, 601,602호)",
        "amenity": "bar",
        "name": "룸의정석(강남점)",
        "coordinates": [
            127.0251194,
            37.5009949
        ]
    },
    {
        "address": "서울특별시 서초구 170 방배로 제1층 제105호 (방배동)",
        "amenity": "restaurant",
        "name": "금동산",
        "coordinates": [
            126.9932316,
            37.4888934
        ]
    },
    {
        "name": "제노마트",
        "coordinates": [
            127.022544,
            37.505003
        ]
    },
    {
        "address": "서울특별시 서초구 45 서초대로77길 서초동",
        "amenity": "restaurant",
        "name": "전주해장국",
        "coordinates": [
            127.024836,
            37.5015879
        ]
    },
    {
        "amenity": "doctors",
        "name": "강남베스트의원",
        "coordinates": [
            127.006224,
            37.503921
        ]
    },
    {
        "address": "서울특별시 강남구 22 강남대로118길 논현동 지하1층",
        "amenity": "restaurant",
        "name": "냠냠족발&보쌈 강남논현본점",
        "coordinates": [
            127.0252818,
            37.5066913
        ]
    },
    {
        "amenity": "doctors",
        "name": "아름다운피부과",
        "coordinates": [
            127.0113959,
            37.5021214
        ]
    },
    {
        "address": "서울특별시 서초구 349 사평대로 서초빌딩 108호 (반포동)",
        "amenity": "restaurant",
        "name": "깡우동 신논현역점",
        "coordinates": [
            127.0212296,
            37.5038053
        ]
    },